operator;operatorQID;country;countryQID;city;cityQID;address;latitude;longitude;phone;email;website;facebook;twitter;youtube;picture;type;typeQID;creation;QID;
Afghanistan;http://www.wikidata.org/entity/Q889;Belgium;http://www.wikidata.org/entity/Q31;Uccle;http://www.wikidata.org/entity/Q203312;;50.7985;4.3424;;;;;;;;embassy;http://www.wikidata.org/entity/Q3917681;;http://www.wikidata.org/entity/Q68189173
Afghanistan;http://www.wikidata.org/entity/Q889;Canada;http://www.wikidata.org/entity/Q16;Ottawa;http://www.wikidata.org/entity/Q1930;;45.4112;-75.6913;+1-613-563-4223;;http://www.afghanemb-canada.net/;;;;http://commons.wikimedia.org/wiki/Special:FilePath/Afghan%20Embassy%20Ottawa.jpg;embassy;http://www.wikidata.org/entity/Q3917681;;http://www.wikidata.org/entity/Q13634268
Afghanistan;http://www.wikidata.org/entity/Q889;Egypt;http://www.wikidata.org/entity/Q79;Heliopolis;http://www.wikidata.org/entity/Q2739389;;;;;;;;;;;embassy;http://www.wikidata.org/entity/Q3917681;;http://www.wikidata.org/entity/Q5369532
Afghanistan;http://www.wikidata.org/entity/Q889;France;http://www.wikidata.org/entity/Q142;Paris;http://www.wikidata.org/entity/Q90;;48.857778;2.266611;;;http://www.ambafghanistan-fr.com;;;;http://commons.wikimedia.org/wiki/Special:FilePath/Paris%20ambassade%20afghanistan.jpg;embassy;http://www.wikidata.org/entity/Q3917681;;http://www.wikidata.org/entity/Q1854450
Afghanistan;http://www.wikidata.org/entity/Q889;Germany;http://www.wikidata.org/entity/Q183;Berlin;http://www.wikidata.org/entity/Q64;;52.4798;13.2784;;;http://botschaft-afghanistan.de;;;;http://commons.wikimedia.org/wiki/Special:FilePath/Taunusstra%C3%9Fe%203%20Berlin-Grunewald.jpg;embassy;http://www.wikidata.org/entity/Q3917681;;http://www.wikidata.org/entity/Q22344398
Afghanistan;http://www.wikidata.org/entity/Q889;India;http://www.wikidata.org/entity/Q668;Chanakyapuri;http://www.wikidata.org/entity/Q12426223;;28.59166667;77.18638889;;;http://newdelhi.mfa.af;;;;http://commons.wikimedia.org/wiki/Special:FilePath/Afghan%20embassy%20Delhi%201069.JPG;embassy;http://www.wikidata.org/entity/Q3917681;;http://www.wikidata.org/entity/Q1854458
Afghanistan;http://www.wikidata.org/entity/Q889;Japan;http://www.wikidata.org/entity/Q17;Tokyo;http://www.wikidata.org/entity/Q1490;;35.657826;139.741864;;;;;;;;embassy;http://www.wikidata.org/entity/Q3917681;;http://www.wikidata.org/entity/Q61924232
Afghanistan;http://www.wikidata.org/entity/Q889;Kazakhstan;http://www.wikidata.org/entity/Q232;Almaty;http://www.wikidata.org/entity/Q35493;;;;+7-7272-69-63-06;mailto:af.generalconsulate.almaty@gmail.com;;;;;;consulate general;http://www.wikidata.org/entity/Q372690;;http://www.wikidata.org/entity/Q79841170
Afghanistan;http://www.wikidata.org/entity/Q889;Kyrgyzstan;http://www.wikidata.org/entity/Q813;Bishkek;http://www.wikidata.org/entity/Q9361;;;;;;;;;;;embassy;http://www.wikidata.org/entity/Q3917681;;http://www.wikidata.org/entity/Q79834180
Afghanistan;http://www.wikidata.org/entity/Q889;Netherlands;http://www.wikidata.org/entity/Q55;The Hague;http://www.wikidata.org/entity/Q36600;;52.0836;4.3057;;;https://www.afghanistanembassy.nl/;;;;http://commons.wikimedia.org/wiki/Special:FilePath/Sign%20of%20the%20embassy%20of%20Afghanistan%20in%20the%20Hague%202016.jpg;embassy;http://www.wikidata.org/entity/Q3917681;;http://www.wikidata.org/entity/Q100532332
Afghanistan;http://www.wikidata.org/entity/Q889;Norway;http://www.wikidata.org/entity/Q20;Oslo Municipality;http://www.wikidata.org/entity/Q5245991;;59.91615;10.6995;;;;;;;http://commons.wikimedia.org/wiki/Special:FilePath/Afghanistans%20ambassade.jpg;embassy;http://www.wikidata.org/entity/Q3917681;;http://www.wikidata.org/entity/Q16031520
Afghanistan;http://www.wikidata.org/entity/Q889;Pakistan;http://www.wikidata.org/entity/Q843;Islamabad;http://www.wikidata.org/entity/Q1362;;33.725161111;73.089191666;;;;;;;;embassy;http://www.wikidata.org/entity/Q3917681;;http://www.wikidata.org/entity/Q5369533
Afghanistan;http://www.wikidata.org/entity/Q889;Pakistan;http://www.wikidata.org/entity/Q843;Karachi;http://www.wikidata.org/entity/Q8660;;;;+92-21-35821264;;;;;;;consulate;http://www.wikidata.org/entity/Q7843791;;http://www.wikidata.org/entity/Q27867659
Afghanistan;http://www.wikidata.org/entity/Q889;People's Republic of China;http://www.wikidata.org/entity/Q148;Beijing;http://www.wikidata.org/entity/Q956;;39.9392;116.4518;;;;;;;;embassy;http://www.wikidata.org/entity/Q3917681;;http://www.wikidata.org/entity/Q100274393
Afghanistan;http://www.wikidata.org/entity/Q889;Poland;http://www.wikidata.org/entity/Q36;Warsaw;http://www.wikidata.org/entity/Q270;;52.1784;21.072;+48-22-885-54-10;;http://www.afghanembassy.com.pl;;;;http://commons.wikimedia.org/wiki/Special:FilePath/Waw%20afganistan12.jpg;embassy;http://www.wikidata.org/entity/Q3917681;1927-01-01T00:00:00Z;http://www.wikidata.org/entity/Q9149445
Afghanistan;http://www.wikidata.org/entity/Q889;Russia;http://www.wikidata.org/entity/Q159;Povarskaya Street;http://www.wikidata.org/entity/Q4366349;;55.7567;37.5892;;;;;;;http://commons.wikimedia.org/wiki/Special:FilePath/Povarskaya%2042%20Ponizovsky%20Building%20by%20Lev%20Kekyshev.jpg;embassy;http://www.wikidata.org/entity/Q3917681;;http://www.wikidata.org/entity/Q4373966
Afghanistan;http://www.wikidata.org/entity/Q889;Russia;http://www.wikidata.org/entity/Q159;Povarskaya Street;http://www.wikidata.org/entity/Q4366349;;55.7567;37.5892;;;;;;;http://commons.wikimedia.org/wiki/Special:FilePath/Povarskaya%2042%20Ponizovsky%20Building%20by%20Lev%20Kekyshev.jpg;embassy;http://www.wikidata.org/entity/Q3917681;;http://www.wikidata.org/entity/Q86660050
Afghanistan;http://www.wikidata.org/entity/Q889;Saudi Arabia;http://www.wikidata.org/entity/Q851;Jeddah;http://www.wikidata.org/entity/Q374365;;21.569867;39.14838;;;;;;;;consulate general;http://www.wikidata.org/entity/Q372690;;http://www.wikidata.org/entity/Q5164559
Afghanistan;http://www.wikidata.org/entity/Q889;Saudi Arabia;http://www.wikidata.org/entity/Q851;Riyadh;http://www.wikidata.org/entity/Q3692;;24.6807;46.6233;;;;;;;;embassy;http://www.wikidata.org/entity/Q3917681;;http://www.wikidata.org/entity/Q68169921
Afghanistan;http://www.wikidata.org/entity/Q889;Sweden;http://www.wikidata.org/entity/Q34;Nacka Municipality;http://www.wikidata.org/entity/Q946647;;59.3012;18.2051;;;;;;;;embassy;http://www.wikidata.org/entity/Q3917681;;http://www.wikidata.org/entity/Q60969153
Afghanistan;http://www.wikidata.org/entity/Q889;Switzerland;http://www.wikidata.org/entity/Q39;Geneva;http://www.wikidata.org/entity/Q71;;46.22;6.1439;;;https://www.geneva.mfa.af;;;;;embassy;http://www.wikidata.org/entity/Q3917681;;http://www.wikidata.org/entity/Q101027507
Afghanistan;http://www.wikidata.org/entity/Q889;Ukraine;http://www.wikidata.org/entity/Q212;Kyiv;http://www.wikidata.org/entity/Q1899;03069, Київ, вул. Уляни Громової, 14;50.41876871;30.472897;+380-44-275-5893;mailto:afembkiev@yahoo.com;http://www.afghanembassy.com.ua/;;;;http://commons.wikimedia.org/wiki/Special:FilePath/Embassy%20of%20Afghanistan%20in%20Kyiv.jpg;embassy;http://www.wikidata.org/entity/Q3917681;;http://www.wikidata.org/entity/Q12142654
Afghanistan;http://www.wikidata.org/entity/Q889;United Kingdom;http://www.wikidata.org/entity/Q145;London;http://www.wikidata.org/entity/Q84;;;;;;;;;;;embassy;http://www.wikidata.org/entity/Q3917681;;http://www.wikidata.org/entity/Q93835633
Afghanistan;http://www.wikidata.org/entity/Q889;United States of America;http://www.wikidata.org/entity/Q30;Washington, D.C.;http://www.wikidata.org/entity/Q61;;38.9172;-77.0522;;;https://www.afghanembassy.us;;Embassy_of_AFG;;http://commons.wikimedia.org/wiki/Special:FilePath/Embassy%20of%20Afghanistan.JPG;embassy;http://www.wikidata.org/entity/Q3917681;;http://www.wikidata.org/entity/Q5369535
Albania;http://www.wikidata.org/entity/Q222;Austria;http://www.wikidata.org/entity/Q40;Vienna;http://www.wikidata.org/entity/Q1741;;48.1955;16.3763;;;http://www.ambasadat.gov.al/austria/;;;;http://commons.wikimedia.org/wiki/Special:FilePath/Embassy%20of%20the%20Republic%20of%20Albania%20Vienna.jpg;embassy;http://www.wikidata.org/entity/Q3917681;;http://www.wikidata.org/entity/Q51711009
Albania;http://www.wikidata.org/entity/Q222;Belgium;http://www.wikidata.org/entity/Q31;Brussels;http://www.wikidata.org/entity/Q239;;50.8277;4.3628;;;;;;;;embassy;http://www.wikidata.org/entity/Q3917681;;http://www.wikidata.org/entity/Q68190170
Albania;http://www.wikidata.org/entity/Q222;France;http://www.wikidata.org/entity/Q142;Paris;http://www.wikidata.org/entity/Q90;;48.8699;2.29806;;;http://www.ambasadat.gov.al/france/fr;;;;http://commons.wikimedia.org/wiki/Special:FilePath/Ambassade%20d%27Albanie%20en%20France%2C%2057%20avenue%20Marceau%2C%20Paris%2016e.jpg;embassy;http://www.wikidata.org/entity/Q3917681;;http://www.wikidata.org/entity/Q20669698
Albania;http://www.wikidata.org/entity/Q222;Germany;http://www.wikidata.org/entity/Q183;Berlin;http://www.wikidata.org/entity/Q64;;52.503;13.3909;;;http://www.ambasadat.gov.al/germany;;;;;embassy;http://www.wikidata.org/entity/Q3917681;;http://www.wikidata.org/entity/Q73141849
Albania;http://www.wikidata.org/entity/Q222;Italy;http://www.wikidata.org/entity/Q38;Vatican City;http://www.wikidata.org/entity/Q237;;;;;;http://www.ambasadat.gov.al/vatican-city;;;;;embassy;http://www.wikidata.org/entity/Q3917681;1993-01-01T00:00:00Z;http://www.wikidata.org/entity/Q56326894
Albania;http://www.wikidata.org/entity/Q222;Japan;http://www.wikidata.org/entity/Q17;Tokyo;http://www.wikidata.org/entity/Q1490;;35.664878;139.772618;;;;;;;;embassy;http://www.wikidata.org/entity/Q3917681;;http://www.wikidata.org/entity/Q61877397
Albania;http://www.wikidata.org/entity/Q222;Netherlands;http://www.wikidata.org/entity/Q55;The Hague;http://www.wikidata.org/entity/Q36600;;52.086536111;4.298661111;;;http://www.ambasadat.gov.al/netherlands/en/;;;;http://commons.wikimedia.org/wiki/Special:FilePath/Ministria%20p%C3%ABr%20Europ%C3%ABn%20dhe%20Pun%C3%ABt%20e%20Jashtme.svg;embassy;http://www.wikidata.org/entity/Q3917681;;http://www.wikidata.org/entity/Q5369538
Albania;http://www.wikidata.org/entity/Q222;Pakistan;http://www.wikidata.org/entity/Q843;Karachi;http://www.wikidata.org/entity/Q8660;16-B, South, Circular Avenue, DHA;;;+92-21358869012;;;;;;;consulate;http://www.wikidata.org/entity/Q7843791;;http://www.wikidata.org/entity/Q27867678
Albania;http://www.wikidata.org/entity/Q222;Poland;http://www.wikidata.org/entity/Q36;Warsaw;http://www.wikidata.org/entity/Q270;;52.201294444;20.961741666;+48-22-824-14-27;;http://ambasadat.gov.al/poland/en/;;;;http://commons.wikimedia.org/wiki/Special:FilePath/Ambasada%20Albanii%20w%20Warszawie.jpg;embassy;http://www.wikidata.org/entity/Q3917681;1938-01-01T00:00:00Z;http://www.wikidata.org/entity/Q9149446
Albania;http://www.wikidata.org/entity/Q222;Russia;http://www.wikidata.org/entity/Q159;Moscow;http://www.wikidata.org/entity/Q649;;55.72758333;37.616;;;;;;;http://commons.wikimedia.org/wiki/Special:FilePath/Mytnaya%20Street%203.jpg;embassy;http://www.wikidata.org/entity/Q3917681;;http://www.wikidata.org/entity/Q4373962
Albania;http://www.wikidata.org/entity/Q222;Saudi Arabia;http://www.wikidata.org/entity/Q851;Riyadh;http://www.wikidata.org/entity/Q3692;;;;;;;;;;;embassy;http://www.wikidata.org/entity/Q3917681;;http://www.wikidata.org/entity/Q68169922
Albania;http://www.wikidata.org/entity/Q222;Serbia;http://www.wikidata.org/entity/Q403;Belgrade;http://www.wikidata.org/entity/Q3711;;44.776;20.457361111;;;http://www.ambasadat.gov.al/serbia/;;;;;embassy;http://www.wikidata.org/entity/Q3917681;;http://www.wikidata.org/entity/Q67193149
Albania;http://www.wikidata.org/entity/Q222;Sweden;http://www.wikidata.org/entity/Q34;Lidingö Municipality;http://www.wikidata.org/entity/Q3120654;;59.36083333;18.13611111;;;;;;;http://commons.wikimedia.org/wiki/Special:FilePath/Albaniens%20ambassad%20p%C3%A5%20Liding%C3%B6%202.jpg;embassy;http://www.wikidata.org/entity/Q3917681;;http://www.wikidata.org/entity/Q10404284
Albania;http://www.wikidata.org/entity/Q222;Switzerland;http://www.wikidata.org/entity/Q39;Muri bei Bern;http://www.wikidata.org/entity/Q69765;;46.927941666;7.481172222;+41-31-952-60-10;mailto:embassy.bern@mfa.gov.al;;;AlEmbassyBern;;;embassy;http://www.wikidata.org/entity/Q3917681;;http://www.wikidata.org/entity/Q26980073
Albania;http://www.wikidata.org/entity/Q222;United Kingdom;http://www.wikidata.org/entity/Q145;City of Westminster;http://www.wikidata.org/entity/Q179351;;51.4907;-0.144028;;;;;;;http://commons.wikimedia.org/wiki/Special:FilePath/Embassy%20of%20Albania%20in%20London%201.jpg;embassy;http://www.wikidata.org/entity/Q3917681;;http://www.wikidata.org/entity/Q13036975
Albania;http://www.wikidata.org/entity/Q222;United States of America;http://www.wikidata.org/entity/Q30;Washington, D.C.;http://www.wikidata.org/entity/Q61;;38.9139;-77.047;;;http://www.ambasadat.gov.al/usa/;;;;http://commons.wikimedia.org/wiki/Special:FilePath/Embassy%20of%20Albania%2C%20Washington%2C%20D.C..jpg;embassy;http://www.wikidata.org/entity/Q3917681;;http://www.wikidata.org/entity/Q5369539
Algeria;http://www.wikidata.org/entity/Q262;Angola;http://www.wikidata.org/entity/Q916;Luanda;http://www.wikidata.org/entity/Q3897;;;;;;;;;;;embassy;http://www.wikidata.org/entity/Q3917681;;http://www.wikidata.org/entity/Q100268055
Algeria;http://www.wikidata.org/entity/Q262;Argentina;http://www.wikidata.org/entity/Q414;Buenos Aires;http://www.wikidata.org/entity/Q1486;;-34.589;-58.3849;;;;;;;;embassy;http://www.wikidata.org/entity/Q3917681;;http://www.wikidata.org/entity/Q100269328
Algeria;http://www.wikidata.org/entity/Q262;Australia;http://www.wikidata.org/entity/Q408;Canberra;http://www.wikidata.org/entity/Q3114;;-35.361;149.1064;;;;;;;;embassy;http://www.wikidata.org/entity/Q3917681;;http://www.wikidata.org/entity/Q100269329
Algeria;http://www.wikidata.org/entity/Q262;Austria;http://www.wikidata.org/entity/Q40;Vienna;http://www.wikidata.org/entity/Q1741;;48.2444;16.3464;;;http://www.algerische-botschaft.at/;;;;;embassy;http://www.wikidata.org/entity/Q3917681;;http://www.wikidata.org/entity/Q100151623
Algeria;http://www.wikidata.org/entity/Q262;Azerbaijan;http://www.wikidata.org/entity/Q227;Baku;http://www.wikidata.org/entity/Q9248;;40.3804;49.8873;;;;;;;;embassy;http://www.wikidata.org/entity/Q3917681;;http://www.wikidata.org/entity/Q100269330
Algeria;http://www.wikidata.org/entity/Q262;Bahrain;http://www.wikidata.org/entity/Q398;Manama;http://www.wikidata.org/entity/Q3882;;26.2063;50.5819;;;;;;;;embassy;http://www.wikidata.org/entity/Q3917681;;http://www.wikidata.org/entity/Q68170363
Algeria;http://www.wikidata.org/entity/Q262;Belgium;http://www.wikidata.org/entity/Q31;Ixelles;http://www.wikidata.org/entity/Q208713;;50.8155;4.3517;;;http://algerian-embassy.be/;;;;;embassy;http://www.wikidata.org/entity/Q3917681;;http://www.wikidata.org/entity/Q68190676
Algeria;http://www.wikidata.org/entity/Q262;Brazil;http://www.wikidata.org/entity/Q155;Brasília;http://www.wikidata.org/entity/Q2844;;-15.8346;-47.8762;;;;;;;;embassy;http://www.wikidata.org/entity/Q3917681;;http://www.wikidata.org/entity/Q100269331
Algeria;http://www.wikidata.org/entity/Q262;Bulgaria;http://www.wikidata.org/entity/Q219;Sofia;http://www.wikidata.org/entity/Q472;;42.6926;23.3296;;;;;;;;embassy;http://www.wikidata.org/entity/Q3917681;;http://www.wikidata.org/entity/Q100268056
Algeria;http://www.wikidata.org/entity/Q262;Burkina Faso;http://www.wikidata.org/entity/Q965;Ouagadougou;http://www.wikidata.org/entity/Q3777;;12.3843;-1.4933;;;http://www.ambalgbf.net;;;;;embassy;http://www.wikidata.org/entity/Q3917681;;http://www.wikidata.org/entity/Q100268057
Algeria;http://www.wikidata.org/entity/Q262;Cameroon;http://www.wikidata.org/entity/Q1009;Yaoundé;http://www.wikidata.org/entity/Q3808;;3.8994;11.5091;;;;;;;;embassy;http://www.wikidata.org/entity/Q3917681;;http://www.wikidata.org/entity/Q100268059
Algeria;http://www.wikidata.org/entity/Q262;Canada;http://www.wikidata.org/entity/Q16;Ottawa;http://www.wikidata.org/entity/Q1930;;45.430323;-75.673307;;;http://www.ambalgott.com/;;;;http://commons.wikimedia.org/wiki/Special:FilePath/Algeria%2C%20Ottawa.JPG;embassy;http://www.wikidata.org/entity/Q3917681;;http://www.wikidata.org/entity/Q2841568
Algeria;http://www.wikidata.org/entity/Q262;Chad;http://www.wikidata.org/entity/Q657;N'Djamena;http://www.wikidata.org/entity/Q3659;;12.1197;15.042;;;;;;;;embassy;http://www.wikidata.org/entity/Q3917681;;http://www.wikidata.org/entity/Q100268090
Algeria;http://www.wikidata.org/entity/Q262;Chile;http://www.wikidata.org/entity/Q298;Santiago;http://www.wikidata.org/entity/Q2887;;-33.4183;-70.5854;;;;;;;;embassy;http://www.wikidata.org/entity/Q3917681;;http://www.wikidata.org/entity/Q100269332
Algeria;http://www.wikidata.org/entity/Q262;Colombia;http://www.wikidata.org/entity/Q739;Bogotá;http://www.wikidata.org/entity/Q2841;;4.675;-74.0476;;;;;;;;embassy;http://www.wikidata.org/entity/Q3917681;;http://www.wikidata.org/entity/Q100269333
Algeria;http://www.wikidata.org/entity/Q262;Croatia;http://www.wikidata.org/entity/Q224;Zagreb;http://www.wikidata.org/entity/Q1435;;45.8223;15.9894;;;http://www.ambalgzagreb.com/;;;;;embassy;http://www.wikidata.org/entity/Q3917681;;http://www.wikidata.org/entity/Q100268064
Algeria;http://www.wikidata.org/entity/Q262;Cuba;http://www.wikidata.org/entity/Q241;Havana;http://www.wikidata.org/entity/Q1563;;23.1191;-82.4256;;;;;;;;embassy;http://www.wikidata.org/entity/Q3917681;;http://www.wikidata.org/entity/Q100269334
Algeria;http://www.wikidata.org/entity/Q262;Czech Republic;http://www.wikidata.org/entity/Q213;Prague;http://www.wikidata.org/entity/Q1085;;50.1022;14.412;;;;;;;http://commons.wikimedia.org/wiki/Special:FilePath/Algerian%20embassy%20Prague%202337.JPG;embassy;http://www.wikidata.org/entity/Q3917681;;http://www.wikidata.org/entity/Q100268088
Algeria;http://www.wikidata.org/entity/Q262;Democratic Republic of the Congo;http://www.wikidata.org/entity/Q974;Kinshasa;http://www.wikidata.org/entity/Q3838;;;;;;;;;;;embassy;http://www.wikidata.org/entity/Q3917681;;http://www.wikidata.org/entity/Q100268086
Algeria;http://www.wikidata.org/entity/Q262;Denmark;http://www.wikidata.org/entity/Q35;Gentofte Municipality;http://www.wikidata.org/entity/Q500076;;55.7342;12.5617;;;;;;;;embassy;http://www.wikidata.org/entity/Q3917681;;http://www.wikidata.org/entity/Q100268065
Algeria;http://www.wikidata.org/entity/Q262;Egypt;http://www.wikidata.org/entity/Q79;Cairo;http://www.wikidata.org/entity/Q85;;30.0612;31.2226;;;;;;;http://commons.wikimedia.org/wiki/Special:FilePath/Ambassade%20de%20l%27algerie%20en%20Egypt%20sur%20le%20Nil.jpg;embassy;http://www.wikidata.org/entity/Q3917681;;http://www.wikidata.org/entity/Q72757191
Algeria;http://www.wikidata.org/entity/Q262;Ethiopia;http://www.wikidata.org/entity/Q115;Addis Ababa;http://www.wikidata.org/entity/Q3624;;8.9878;38.7248;;;;;;;;embassy;http://www.wikidata.org/entity/Q3917681;;http://www.wikidata.org/entity/Q72247713
Algeria;http://www.wikidata.org/entity/Q262;Finland;http://www.wikidata.org/entity/Q33;Helsinki;http://www.wikidata.org/entity/Q1757;;60.1656;24.9502;;;https://www.algerianembassy.fi;;;;;embassy;http://www.wikidata.org/entity/Q3917681;;http://www.wikidata.org/entity/Q100269335
Algeria;http://www.wikidata.org/entity/Q262;France;http://www.wikidata.org/entity/Q142;;;;48.8488;2.39839;;;http://www.consulatalgerie-paris.org;;;;;consulate general;http://www.wikidata.org/entity/Q372690;;http://www.wikidata.org/entity/Q16507562
Algeria;http://www.wikidata.org/entity/Q262;France;http://www.wikidata.org/entity/Q142;6th arrondissement of Lyon;http://www.wikidata.org/entity/Q3358;;45.765858;4.854692;;;http://www.consulatalgerie-lyon.org;;;;http://commons.wikimedia.org/wiki/Special:FilePath/Rue%20Vauban%20%28Lyon%29%20-%20Mars%202019%20-%20consulat%20d%27Alg%C3%A9rie.jpg;consulate general;http://www.wikidata.org/entity/Q372690;;http://www.wikidata.org/entity/Q16507561
Algeria;http://www.wikidata.org/entity/Q262;France;http://www.wikidata.org/entity/Q142;Lille;http://www.wikidata.org/entity/Q648;;50.6323;3.05278;;;http://www.consulatalgerielille.org;;;;;consulate general;http://www.wikidata.org/entity/Q372690;;http://www.wikidata.org/entity/Q16010659
Algeria;http://www.wikidata.org/entity/Q262;France;http://www.wikidata.org/entity/Q142;Marseille;http://www.wikidata.org/entity/Q23482;;43.2774;5.38366;;;;;;;;consulate general;http://www.wikidata.org/entity/Q372690;;http://www.wikidata.org/entity/Q16010660
Algeria;http://www.wikidata.org/entity/Q262;France;http://www.wikidata.org/entity/Q142;Metz;http://www.wikidata.org/entity/Q22690;;49.110087;6.170309;;;http://www.consulat-metz-algerie.fr/;;;;http://commons.wikimedia.org/wiki/Special:FilePath/Conalfrme.png;consulate;http://www.wikidata.org/entity/Q7843791;;http://www.wikidata.org/entity/Q26257932
Algeria;http://www.wikidata.org/entity/Q262;France;http://www.wikidata.org/entity/Q142;Paris;http://www.wikidata.org/entity/Q90;;48.877583;2.309722;;;http://www.amb-algerie.fr;;;;http://commons.wikimedia.org/wiki/Special:FilePath/Algerian%20embassy%20in%20France.jpg;embassy;http://www.wikidata.org/entity/Q3917681;;http://www.wikidata.org/entity/Q2841572
Algeria;http://www.wikidata.org/entity/Q262;France;http://www.wikidata.org/entity/Q142;Paris;http://www.wikidata.org/entity/Q90;;48.87763;2.30982;;;;;;;http://commons.wikimedia.org/wiki/Special:FilePath/Ambassade%20d%27Alg%C3%A9rie%20en%20France%2C%2050%2C%20rue%20de%20Lisbonne%2C%20Paris%208e.jpg;embassy;http://www.wikidata.org/entity/Q3917681;;http://www.wikidata.org/entity/Q66725122
Algeria;http://www.wikidata.org/entity/Q262;France;http://www.wikidata.org/entity/Q142;Strasbourg;http://www.wikidata.org/entity/Q6602;;48.5721;7.71459;;;https://consulat-strasbourg-algerie.fr/;;;;;consulate general;http://www.wikidata.org/entity/Q372690;;http://www.wikidata.org/entity/Q16010254
Algeria;http://www.wikidata.org/entity/Q262;Gabon;http://www.wikidata.org/entity/Q1000;Libreville;http://www.wikidata.org/entity/Q3825;;0.4409;9.4163;;;;;;;;embassy;http://www.wikidata.org/entity/Q3917681;;http://www.wikidata.org/entity/Q100268069
Algeria;http://www.wikidata.org/entity/Q262;Germany;http://www.wikidata.org/entity/Q183;Berlin;http://www.wikidata.org/entity/Q64;;52.5667;13.3996;;;http://www.algerische-botschaft.de;;;;http://commons.wikimedia.org/wiki/Special:FilePath/Be%20Embassy%20of%20Algeria%2002.jpg;embassy;http://www.wikidata.org/entity/Q3917681;;http://www.wikidata.org/entity/Q2841578
Algeria;http://www.wikidata.org/entity/Q262;Ghana;http://www.wikidata.org/entity/Q117;Accra;http://www.wikidata.org/entity/Q3761;;5.5789;-0.1809;;;;;;;;embassy;http://www.wikidata.org/entity/Q3917681;;http://www.wikidata.org/entity/Q100268070
Algeria;http://www.wikidata.org/entity/Q262;Greece;http://www.wikidata.org/entity/Q41;Athens;http://www.wikidata.org/entity/Q1524;;37.9708;23.7417;;;;;;;;embassy;http://www.wikidata.org/entity/Q3917681;;http://www.wikidata.org/entity/Q100268072
Algeria;http://www.wikidata.org/entity/Q262;Guinea;http://www.wikidata.org/entity/Q1006;Conakry;http://www.wikidata.org/entity/Q3733;;9.5056;-13.7158;;;http://www.ambassadealgerieconakry.info/;;;;;embassy;http://www.wikidata.org/entity/Q3917681;;http://www.wikidata.org/entity/Q99373482
Algeria;http://www.wikidata.org/entity/Q262;Hungary;http://www.wikidata.org/entity/Q28;Budapest;http://www.wikidata.org/entity/Q1781;;47.5176;18.9881;;;https://www.ambalgbudapest.org/;;;;http://commons.wikimedia.org/wiki/Special:FilePath/Class%20villa%20bp.JPG;embassy;http://www.wikidata.org/entity/Q3917681;;http://www.wikidata.org/entity/Q100268073
Algeria;http://www.wikidata.org/entity/Q262;India;http://www.wikidata.org/entity/Q668;New Delhi;http://www.wikidata.org/entity/Q987;;28.578;77.1728;;;;;;;;embassy;http://www.wikidata.org/entity/Q3917681;;http://www.wikidata.org/entity/Q100269162
Algeria;http://www.wikidata.org/entity/Q262;Indonesia;http://www.wikidata.org/entity/Q252;Jakarta;http://www.wikidata.org/entity/Q3630;;-6.23;106.8337;;;;;;;;embassy;http://www.wikidata.org/entity/Q3917681;;http://www.wikidata.org/entity/Q100269337
Algeria;http://www.wikidata.org/entity/Q262;Iran;http://www.wikidata.org/entity/Q794;Tehran;http://www.wikidata.org/entity/Q3616;;35.8071;51.3996;;;;;;;;embassy;http://www.wikidata.org/entity/Q3917681;;http://www.wikidata.org/entity/Q100269338
Algeria;http://www.wikidata.org/entity/Q262;Iraq;http://www.wikidata.org/entity/Q796;Baghdad;http://www.wikidata.org/entity/Q1530;;;;;;;;;;;embassy;http://www.wikidata.org/entity/Q3917681;;http://www.wikidata.org/entity/Q72253450
Algeria;http://www.wikidata.org/entity/Q262;Italy;http://www.wikidata.org/entity/Q38;Rome;http://www.wikidata.org/entity/Q220;;41.9125;12.5096;;;http://www.algerianembassy.it;;;;;embassy;http://www.wikidata.org/entity/Q3917681;;http://www.wikidata.org/entity/Q72256120
Algeria;http://www.wikidata.org/entity/Q262;Ivory Coast;http://www.wikidata.org/entity/Q1008;Abidjan;http://www.wikidata.org/entity/Q1515;;5.3307;-4.0208;;;;;;;;embassy;http://www.wikidata.org/entity/Q3917681;;http://www.wikidata.org/entity/Q100268063
Algeria;http://www.wikidata.org/entity/Q262;Jamaica;http://www.wikidata.org/entity/Q766;Kingston;http://www.wikidata.org/entity/Q34692;;18.0274;-76.7559;;;;;;;;embassy;http://www.wikidata.org/entity/Q3917681;;http://www.wikidata.org/entity/Q100269339
Algeria;http://www.wikidata.org/entity/Q262;Japan;http://www.wikidata.org/entity/Q17;Meguro-ku;http://www.wikidata.org/entity/Q233903;;35.639119444;139.710163888;;;https://algerianembassy-japan.jp/en/;;;;http://commons.wikimedia.org/wiki/Special:FilePath/%E3%82%A2%E3%83%AB%E3%82%B8%E3%82%A7%E3%83%AA%E3%82%A2%E5%A4%A7%E4%BD%BF%E5%85%AC%E9%82%B8.jpg;embassy;http://www.wikidata.org/entity/Q3917681;;http://www.wikidata.org/entity/Q30403250
Algeria;http://www.wikidata.org/entity/Q262;Jordan;http://www.wikidata.org/entity/Q810;Amman;http://www.wikidata.org/entity/Q3805;;31.9552;35.9124;;;;;;;;embassy;http://www.wikidata.org/entity/Q3917681;;http://www.wikidata.org/entity/Q100269340
Algeria;http://www.wikidata.org/entity/Q262;Kenya;http://www.wikidata.org/entity/Q114;Nairobi;http://www.wikidata.org/entity/Q3870;;-1.2529;36.8292;;;;;;;;embassy;http://www.wikidata.org/entity/Q3917681;;http://www.wikidata.org/entity/Q100268074
Algeria;http://www.wikidata.org/entity/Q262;Kuwait;http://www.wikidata.org/entity/Q817;Kuwait City;http://www.wikidata.org/entity/Q35178;;29.3665;48.0145;;;;;;;;embassy;http://www.wikidata.org/entity/Q3917681;;http://www.wikidata.org/entity/Q100269341
Algeria;http://www.wikidata.org/entity/Q262;Lebanon;http://www.wikidata.org/entity/Q822;Beirut;http://www.wikidata.org/entity/Q3820;;33.8669;35.4835;;;;;;;;embassy;http://www.wikidata.org/entity/Q3917681;;http://www.wikidata.org/entity/Q100269342
Algeria;http://www.wikidata.org/entity/Q262;Libya;http://www.wikidata.org/entity/Q1016;Tripoli;http://www.wikidata.org/entity/Q3579;;32.8921;13.1879;;;;;;;;embassy;http://www.wikidata.org/entity/Q3917681;;http://www.wikidata.org/entity/Q100268075
Algeria;http://www.wikidata.org/entity/Q262;Madagascar;http://www.wikidata.org/entity/Q1019;Antananarivo;http://www.wikidata.org/entity/Q3915;;-18.9007;47.5221;;;;;;;;embassy;http://www.wikidata.org/entity/Q3917681;;http://www.wikidata.org/entity/Q100268077
Algeria;http://www.wikidata.org/entity/Q262;Malaysia;http://www.wikidata.org/entity/Q833;Kuala Lumpur;http://www.wikidata.org/entity/Q1865;;3.1638;101.7296;;;;;;;;embassy;http://www.wikidata.org/entity/Q3917681;;http://www.wikidata.org/entity/Q100269343
Algeria;http://www.wikidata.org/entity/Q262;Mali;http://www.wikidata.org/entity/Q912;Bamako;http://www.wikidata.org/entity/Q3703;;12.6089;-7.9768;;;;;;;;embassy;http://www.wikidata.org/entity/Q3917681;;http://www.wikidata.org/entity/Q100268078
Algeria;http://www.wikidata.org/entity/Q262;Mauritania;http://www.wikidata.org/entity/Q1025;Nouakchott;http://www.wikidata.org/entity/Q3688;;18.0981;-15.9743;;;;;;;;embassy;http://www.wikidata.org/entity/Q3917681;;http://www.wikidata.org/entity/Q100268079
Algeria;http://www.wikidata.org/entity/Q262;Mexico;http://www.wikidata.org/entity/Q96;Mexico City;http://www.wikidata.org/entity/Q1489;;19.4225;-99.2135;;;;;;;;embassy;http://www.wikidata.org/entity/Q3917681;;http://www.wikidata.org/entity/Q100269344
Algeria;http://www.wikidata.org/entity/Q262;Morocco;http://www.wikidata.org/entity/Q1028;egepto;http://www.wikidata.org/entity/Q3551;;33.968136;-6.827782;;;https://www.ambalg.ma;;;;;embassy;http://www.wikidata.org/entity/Q3917681;;http://www.wikidata.org/entity/Q2841567
Algeria;http://www.wikidata.org/entity/Q262;Mozambique;http://www.wikidata.org/entity/Q1029;Maputo;http://www.wikidata.org/entity/Q3889;;-25.9709;32.5939;;;;;;;;embassy;http://www.wikidata.org/entity/Q3917681;;http://www.wikidata.org/entity/Q100268080
Algeria;http://www.wikidata.org/entity/Q262;Namibia;http://www.wikidata.org/entity/Q1030;Windhoek;http://www.wikidata.org/entity/Q3935;;-22.5644;17.1135;;;;;;;http://commons.wikimedia.org/wiki/Special:FilePath/Ambassade%20d%E2%80%99Alg%C3%A9rie%20a%20Windhoek.webp;embassy;http://www.wikidata.org/entity/Q3917681;;http://www.wikidata.org/entity/Q100268081
Algeria;http://www.wikidata.org/entity/Q262;Netherlands;http://www.wikidata.org/entity/Q55;The Hague;http://www.wikidata.org/entity/Q36600;;52.1004;4.2827;;;;;;;;embassy;http://www.wikidata.org/entity/Q3917681;;http://www.wikidata.org/entity/Q100268085
Algeria;http://www.wikidata.org/entity/Q262;Niger;http://www.wikidata.org/entity/Q1032;Niamey;http://www.wikidata.org/entity/Q3674;;13.525;2.0714;;;;;;;;embassy;http://www.wikidata.org/entity/Q3917681;;http://www.wikidata.org/entity/Q100268082
Algeria;http://www.wikidata.org/entity/Q262;Nigeria;http://www.wikidata.org/entity/Q1033;Abuja;http://www.wikidata.org/entity/Q3787;;9.0365;7.5232;;;;;;;;embassy;http://www.wikidata.org/entity/Q3917681;;http://www.wikidata.org/entity/Q100268083
Algeria;http://www.wikidata.org/entity/Q262;Norway;http://www.wikidata.org/entity/Q20;Oslo Municipality;http://www.wikidata.org/entity/Q5245991;;59.919527777;10.691388888;;;https://algerianembassy.no/;;;;http://commons.wikimedia.org/wiki/Special:FilePath/Sigurd%20Syrs%20gt%202-4%20II.jpg;embassy;http://www.wikidata.org/entity/Q3917681;;http://www.wikidata.org/entity/Q17748401
Algeria;http://www.wikidata.org/entity/Q262;Oman;http://www.wikidata.org/entity/Q842;Muscat;http://www.wikidata.org/entity/Q3826;;23.603;58.4289;;;;;;;;embassy;http://www.wikidata.org/entity/Q3917681;;http://www.wikidata.org/entity/Q100269345
Algeria;http://www.wikidata.org/entity/Q262;Pakistan;http://www.wikidata.org/entity/Q843;Islamabad;http://www.wikidata.org/entity/Q1362;;33.728387;73.046287;;;;;;;;embassy;http://www.wikidata.org/entity/Q3917681;;http://www.wikidata.org/entity/Q30592878
Algeria;http://www.wikidata.org/entity/Q262;People's Republic of China;http://www.wikidata.org/entity/Q148;Beijing;http://www.wikidata.org/entity/Q956;;;;;;;;;;;embassy;http://www.wikidata.org/entity/Q3917681;;http://www.wikidata.org/entity/Q100268060
Algeria;http://www.wikidata.org/entity/Q262;Peru;http://www.wikidata.org/entity/Q419;Lima;http://www.wikidata.org/entity/Q2868;;-12.0985;-77.042;;;;;;;;embassy;http://www.wikidata.org/entity/Q3917681;;http://www.wikidata.org/entity/Q100269347
Algeria;http://www.wikidata.org/entity/Q262;Poland;http://www.wikidata.org/entity/Q36;Warsaw;http://www.wikidata.org/entity/Q270;;52.191033333;21.021711111;+48-22-617-58-55;;http://www.algerianembassy.pl;;;;http://commons.wikimedia.org/wiki/Special:FilePath/AMBASADA%20ALGIERII%2002.jpg;embassy;http://www.wikidata.org/entity/Q3917681;1962-01-01T00:00:00Z;http://www.wikidata.org/entity/Q9149450
Algeria;http://www.wikidata.org/entity/Q262;Portugal;http://www.wikidata.org/entity/Q45;Lisbon;http://www.wikidata.org/entity/Q597;;38.7;-9.2159;;;;;;;http://commons.wikimedia.org/wiki/Special:FilePath/Embaixada%20da%20Arg%C3%A9lia%20em%20Lisboa%2002.jpg;embassy;http://www.wikidata.org/entity/Q3917681;;http://www.wikidata.org/entity/Q100146805
Algeria;http://www.wikidata.org/entity/Q262;Qatar;http://www.wikidata.org/entity/Q846;Doha;http://www.wikidata.org/entity/Q3861;;25.3418;51.5183;;;;;;;;embassy;http://www.wikidata.org/entity/Q3917681;;http://www.wikidata.org/entity/Q72252232
Algeria;http://www.wikidata.org/entity/Q262;Republic of the Congo;http://www.wikidata.org/entity/Q971;Brazzaville;http://www.wikidata.org/entity/Q3844;;;;;;;;;;;embassy;http://www.wikidata.org/entity/Q3917681;;http://www.wikidata.org/entity/Q100268087
Algeria;http://www.wikidata.org/entity/Q262;Romania;http://www.wikidata.org/entity/Q218;Bucharest;http://www.wikidata.org/entity/Q19660;;44.4426;26.09;;;;;;;http://commons.wikimedia.org/wiki/Special:FilePath/AmbasadaAlgeriei.JPG;embassy;http://www.wikidata.org/entity/Q3917681;;http://www.wikidata.org/entity/Q100146802
Algeria;http://www.wikidata.org/entity/Q262;Russia;http://www.wikidata.org/entity/Q159;Moscow;http://www.wikidata.org/entity/Q649;;55.766667;37.6;;;http://www.algerianembassy.ru;;;;http://commons.wikimedia.org/wiki/Special:FilePath/Ambassade%20d%27Alg%C3%A9rie%20%C3%A0%20Mosco.JPG;embassy;http://www.wikidata.org/entity/Q3917681;;http://www.wikidata.org/entity/Q2841581
Algeria;http://www.wikidata.org/entity/Q262;Saudi Arabia;http://www.wikidata.org/entity/Q851;Riyadh;http://www.wikidata.org/entity/Q3692;;24.6775;46.62;;;;;;;;embassy;http://www.wikidata.org/entity/Q3917681;;http://www.wikidata.org/entity/Q68169924
Algeria;http://www.wikidata.org/entity/Q262;Senegal;http://www.wikidata.org/entity/Q1041;Dakar;http://www.wikidata.org/entity/Q3718;;14.6608;-17.4374;;;;;;;;embassy;http://www.wikidata.org/entity/Q3917681;;http://www.wikidata.org/entity/Q100269348
Algeria;http://www.wikidata.org/entity/Q262;Serbia;http://www.wikidata.org/entity/Q403;Belgrade;http://www.wikidata.org/entity/Q3711;;44.7865;20.4606;;;https://www.ambalgserbia.rs/;;;;;embassy;http://www.wikidata.org/entity/Q3917681;;http://www.wikidata.org/entity/Q100268089
Algeria;http://www.wikidata.org/entity/Q262;South Africa;http://www.wikidata.org/entity/Q258;Pretoria;http://www.wikidata.org/entity/Q3926;;-25.748031;28.226922;;;;;;;http://commons.wikimedia.org/wiki/Special:FilePath/Algerian%20Embassy%20in%20Pretoria.JPG;embassy;http://www.wikidata.org/entity/Q3917681;;http://www.wikidata.org/entity/Q86058115
Algeria;http://www.wikidata.org/entity/Q262;South Korea;http://www.wikidata.org/entity/Q884;Yongsan District;http://www.wikidata.org/entity/Q50429;;37.540888888;126.995277777;;;http://www.algerianemb.or.kr/;;;;;embassy;http://www.wikidata.org/entity/Q3917681;;http://www.wikidata.org/entity/Q12617463
Algeria;http://www.wikidata.org/entity/Q262;Spain;http://www.wikidata.org/entity/Q29;Madrid;http://www.wikidata.org/entity/Q2807;;40.4362;-3.6859;;;;;;;;embassy;http://www.wikidata.org/entity/Q3917681;;http://www.wikidata.org/entity/Q100268067
Algeria;http://www.wikidata.org/entity/Q262;Sudan;http://www.wikidata.org/entity/Q1049;Khartoum;http://www.wikidata.org/entity/Q1963;;;;;;;;;;;embassy;http://www.wikidata.org/entity/Q3917681;;http://www.wikidata.org/entity/Q100269350
Algeria;http://www.wikidata.org/entity/Q262;Sweden;http://www.wikidata.org/entity/Q34;Stockholm;http://www.wikidata.org/entity/Q1754;;59.34263889;18.06944444;;;;;;;http://commons.wikimedia.org/wiki/Special:FilePath/N%C3%A4ktergalen39.jpg;embassy;http://www.wikidata.org/entity/Q3917681;;http://www.wikidata.org/entity/Q10405148
Algeria;http://www.wikidata.org/entity/Q262;Switzerland;http://www.wikidata.org/entity/Q39;Bern;http://www.wikidata.org/entity/Q70;;46.9349916;7.4630476;+41-31-350-10-50;mailto:ambalg.berne@bluewin.ch;https://ambassade-algerie.ch/;;;;http://commons.wikimedia.org/wiki/Special:FilePath/Bern%20Elfenstrasse%204%20Embassy%20of%20Algeria%20in%20Switzerland%20Residence%20DSC01336.jpg;embassy;http://www.wikidata.org/entity/Q3917681;;http://www.wikidata.org/entity/Q26979962
Algeria;http://www.wikidata.org/entity/Q262;Syria;http://www.wikidata.org/entity/Q858;Damascus;http://www.wikidata.org/entity/Q3766;;;;;;;;;;;embassy;http://www.wikidata.org/entity/Q3917681;;http://www.wikidata.org/entity/Q100269351
Algeria;http://www.wikidata.org/entity/Q262;Tanzania;http://www.wikidata.org/entity/Q924;Dar es Salaam;http://www.wikidata.org/entity/Q1960;;-6.8017;39.2852;;;;;;;;embassy;http://www.wikidata.org/entity/Q3917681;;http://www.wikidata.org/entity/Q100269352
Algeria;http://www.wikidata.org/entity/Q262;Tunisia;http://www.wikidata.org/entity/Q948;Tunis Governorate;http://www.wikidata.org/entity/Q328109;;36.81;10.18;;;http://www.ambdz.tn/;;;;http://commons.wikimedia.org/wiki/Special:FilePath/Ambassade%20d%27Alg%C3%A9rie%20%C3%A0%20Tunis.jpg;embassy;http://www.wikidata.org/entity/Q3917681;;http://www.wikidata.org/entity/Q2841582
Algeria;http://www.wikidata.org/entity/Q262;Turkey;http://www.wikidata.org/entity/Q43;Ankara;http://www.wikidata.org/entity/Q3640;;39.8909;32.8589;;;;;;;;embassy;http://www.wikidata.org/entity/Q3917681;;http://www.wikidata.org/entity/Q72249980
Algeria;http://www.wikidata.org/entity/Q262;Uganda;http://www.wikidata.org/entity/Q1036;Kampala;http://www.wikidata.org/entity/Q3894;;0.3341;32.588;;;;;;;;embassy;http://www.wikidata.org/entity/Q3917681;;http://www.wikidata.org/entity/Q100268084
Algeria;http://www.wikidata.org/entity/Q262;Ukraine;http://www.wikidata.org/entity/Q212;Kyiv;http://www.wikidata.org/entity/Q1899;;50.4040955;30.55612896;+380-44-286-7688;mailto:ambalgukraine@gmail.com;http://www.algerianembassy.com.ua/;;;;http://commons.wikimedia.org/wiki/Special:FilePath/Embassy%20of%20Algeria%20in%20Kyiv.jpeg;embassy;http://www.wikidata.org/entity/Q3917681;1993-01-01T00:00:00Z;http://www.wikidata.org/entity/Q154663
Algeria;http://www.wikidata.org/entity/Q262;United Arab Emirates;http://www.wikidata.org/entity/Q878;Abu Dhabi;http://www.wikidata.org/entity/Q1519;;24.4887;54.3691;;;http://www.embassy-algeria-uae.com/;;;;;embassy;http://www.wikidata.org/entity/Q3917681;;http://www.wikidata.org/entity/Q72846414
Algeria;http://www.wikidata.org/entity/Q262;United Kingdom;http://www.wikidata.org/entity/Q145;London;http://www.wikidata.org/entity/Q84;;51.518274;-0.142603;;;http://algerianembassy.org.uk/;;;;http://commons.wikimedia.org/wiki/Special:FilePath/Algerian%20Embassy%20in%20London.jpg;embassy;http://www.wikidata.org/entity/Q3917681;;http://www.wikidata.org/entity/Q16208157
Algeria;http://www.wikidata.org/entity/Q262;United States of America;http://www.wikidata.org/entity/Q30;Washington, D.C.;http://www.wikidata.org/entity/Q61;;38.9181;-77.0486;;;http://www.algeria-us.org/;;;;http://commons.wikimedia.org/wiki/Special:FilePath/Embassy%20Algeria%20Washington%20DC.jpg;embassy;http://www.wikidata.org/entity/Q3917681;;http://www.wikidata.org/entity/Q1770892
Algeria;http://www.wikidata.org/entity/Q262;Uzbekistan;http://www.wikidata.org/entity/Q265;Tashkent;http://www.wikidata.org/entity/Q269;;41.2929;69.2588;;;;;;;;embassy;http://www.wikidata.org/entity/Q3917681;;http://www.wikidata.org/entity/Q100269346
Algeria;http://www.wikidata.org/entity/Q262;Venezuela;http://www.wikidata.org/entity/Q717;Caracas;http://www.wikidata.org/entity/Q1533;;10.5077;-66.8538;;;;;;;;embassy;http://www.wikidata.org/entity/Q3917681;;http://www.wikidata.org/entity/Q100269353
Algeria;http://www.wikidata.org/entity/Q262;Vietnam;http://www.wikidata.org/entity/Q881;Hanoi;http://www.wikidata.org/entity/Q1858;;21.0221;105.856;;;;;;;;embassy;http://www.wikidata.org/entity/Q3917681;;http://www.wikidata.org/entity/Q100269354
Algeria;http://www.wikidata.org/entity/Q262;Yemen;http://www.wikidata.org/entity/Q805;Sana'a;http://www.wikidata.org/entity/Q2471;;15.3358;44.1894;;;;;;;;embassy;http://www.wikidata.org/entity/Q3917681;;http://www.wikidata.org/entity/Q100269355
Algeria;http://www.wikidata.org/entity/Q262;Zambia;http://www.wikidata.org/entity/Q953;Lusaka;http://www.wikidata.org/entity/Q3881;;-15.4178;28.3539;;;;;;;;embassy;http://www.wikidata.org/entity/Q3917681;;http://www.wikidata.org/entity/Q100269356
Algeria;http://www.wikidata.org/entity/Q262;Zimbabwe;http://www.wikidata.org/entity/Q954;Harare;http://www.wikidata.org/entity/Q3921;;-17.8092;31.0456;;;;;;;;embassy;http://www.wikidata.org/entity/Q3917681;;http://www.wikidata.org/entity/Q100269357
Andorra;http://www.wikidata.org/entity/Q228;Belgium;http://www.wikidata.org/entity/Q31;Brussels;http://www.wikidata.org/entity/Q239;;50.847;4.3548;;;https://www.exteriors.ad/fr/ambassades-d-andorre/belgique;;;;http://commons.wikimedia.org/wiki/Special:FilePath/Bruxelles%20rue%20de%20la%20Montagne%2010.jpg;embassy;http://www.wikidata.org/entity/Q3917681;;http://www.wikidata.org/entity/Q67194918
Andorra;http://www.wikidata.org/entity/Q228;France;http://www.wikidata.org/entity/Q142;Paris;http://www.wikidata.org/entity/Q90;;48.85666667;2.27452778;;;http://www.amb-andorre.ad;;;;http://commons.wikimedia.org/wiki/Special:FilePath/Embassy%20of%20Andorra%20in%20Paris.jpg;embassy;http://www.wikidata.org/entity/Q3917681;;http://www.wikidata.org/entity/Q15149864
Argentina;http://www.wikidata.org/entity/Q414;Austria;http://www.wikidata.org/entity/Q40;Vienna;http://www.wikidata.org/entity/Q1741;;48.210147;16.374432;;;;;;;http://commons.wikimedia.org/wiki/Special:FilePath/Edificio%20que%20alberga%20la%20Embajada%20Argentina.jpg;embassy;http://www.wikidata.org/entity/Q3917681;;http://www.wikidata.org/entity/Q15216555
Argentina;http://www.wikidata.org/entity/Q414;Belgium;http://www.wikidata.org/entity/Q31;Brussels;http://www.wikidata.org/entity/Q239;;50.8257;4.3649;;;;;;;;embassy;http://www.wikidata.org/entity/Q3917681;;http://www.wikidata.org/entity/Q68192668
Argentina;http://www.wikidata.org/entity/Q414;Bulgaria;http://www.wikidata.org/entity/Q219;Sofia Capital Municipality;http://www.wikidata.org/entity/Q4442915;;42.670277777;23.350833333;;;;;;;;embassy;http://www.wikidata.org/entity/Q3917681;;http://www.wikidata.org/entity/Q41588555
Argentina;http://www.wikidata.org/entity/Q414;Canada;http://www.wikidata.org/entity/Q16;Ontario;http://www.wikidata.org/entity/Q1904;;45.4212;-75.6957;;;;;;;;embassy;http://www.wikidata.org/entity/Q3917681;;http://www.wikidata.org/entity/Q5369546
Argentina;http://www.wikidata.org/entity/Q414;Chile;http://www.wikidata.org/entity/Q298;Santiago;http://www.wikidata.org/entity/Q2887;;;;;;;;;;;embassy;http://www.wikidata.org/entity/Q3917681;;http://www.wikidata.org/entity/Q16561578
Argentina;http://www.wikidata.org/entity/Q414;Colombia;http://www.wikidata.org/entity/Q739;Bogotá;http://www.wikidata.org/entity/Q2841;;;;;;https://ecolo.cancilleria.gob.ar/;;;;;embassy;http://www.wikidata.org/entity/Q3917681;;http://www.wikidata.org/entity/Q79604096
Argentina;http://www.wikidata.org/entity/Q414;Finland;http://www.wikidata.org/entity/Q33;Helsinki;http://www.wikidata.org/entity/Q1757;;60.165093;24.938865;;;;;;;http://commons.wikimedia.org/wiki/Special:FilePath/Embassy%20of%20Argentina%20in%20Helsinki%2C%20Finland.JPG;embassy;http://www.wikidata.org/entity/Q3917681;;http://www.wikidata.org/entity/Q5369545
Argentina;http://www.wikidata.org/entity/Q414;France;http://www.wikidata.org/entity/Q142;Paris;http://www.wikidata.org/entity/Q90;;48.8682;2.2901;;;;;;;http://commons.wikimedia.org/wiki/Special:FilePath/Argentine%20embassy%20in%20France.jpg;embassy;http://www.wikidata.org/entity/Q3917681;;http://www.wikidata.org/entity/Q5830346
Argentina;http://www.wikidata.org/entity/Q414;Germany;http://www.wikidata.org/entity/Q183;Berlin;http://www.wikidata.org/entity/Q64;;52.5012;13.3446;;;https://ealem.cancilleria.gob.ar/;;;;http://commons.wikimedia.org/wiki/Special:FilePath/Berlin%20-%20Botschaft%20von%20Argentinien%2020191025.jpg;embassy;http://www.wikidata.org/entity/Q3917681;;http://www.wikidata.org/entity/Q72619932
Argentina;http://www.wikidata.org/entity/Q414;Greece;http://www.wikidata.org/entity/Q41;Athens;http://www.wikidata.org/entity/Q1524;;37.978;23.7514;;;;;;;http://commons.wikimedia.org/wiki/Special:FilePath/Embassy%20of%20Argentina%20in%20Athens%2C%20Greece.jpg;embassy;http://www.wikidata.org/entity/Q3917681;;http://www.wikidata.org/entity/Q16891012
Argentina;http://www.wikidata.org/entity/Q414;Italy;http://www.wikidata.org/entity/Q38;;;;;;;;;;;;http://commons.wikimedia.org/wiki/Special:FilePath/Argentine%20embassy%20vatican%20city.jpg;embassy;http://www.wikidata.org/entity/Q3917681;1857-01-01T00:00:00Z;http://www.wikidata.org/entity/Q56326457
Argentina;http://www.wikidata.org/entity/Q414;Japan;http://www.wikidata.org/entity/Q17;Tokyo;http://www.wikidata.org/entity/Q1490;;35.652659;139.730617;;;https://ejapo.cancilleria.gob.ar/ja;ArgJapon;;;http://commons.wikimedia.org/wiki/Special:FilePath/Embassy%20of%20Argentina%20in%20Japan.JPG;embassy;http://www.wikidata.org/entity/Q3917681;;http://www.wikidata.org/entity/Q61877352
Argentina;http://www.wikidata.org/entity/Q414;Netherlands;http://www.wikidata.org/entity/Q55;The Hague;http://www.wikidata.org/entity/Q36600;;52.0878;4.3026;;;https://epbaj.cancilleria.gob.ar/;;;;http://commons.wikimedia.org/wiki/Special:FilePath/Den%20Haag%20-%20Javastraat%2020.JPG;embassy;http://www.wikidata.org/entity/Q3917681;;http://www.wikidata.org/entity/Q100556207
Argentina;http://www.wikidata.org/entity/Q414;Norway;http://www.wikidata.org/entity/Q20;Oslo Municipality;http://www.wikidata.org/entity/Q5245991;;59.913489;10.713006;;;;;;;http://commons.wikimedia.org/wiki/Special:FilePath/Drammensveien%2039%20-%202009-06-20%20at%2018-06-59.jpg;embassy;http://www.wikidata.org/entity/Q3917681;;http://www.wikidata.org/entity/Q17749141
Argentina;http://www.wikidata.org/entity/Q414;Pakistan;http://www.wikidata.org/entity/Q843;Islamabad;http://www.wikidata.org/entity/Q1362;;33.7347;73.0751;;;https://epaki.cancilleria.gob.ar/;;;;;embassy;http://www.wikidata.org/entity/Q3917681;;http://www.wikidata.org/entity/Q30593061
Argentina;http://www.wikidata.org/entity/Q414;People's Republic of China;http://www.wikidata.org/entity/Q148;Beijing;http://www.wikidata.org/entity/Q956;;39.944;116.455898;;;;;;;http://commons.wikimedia.org/wiki/Special:FilePath/Embassy%20of%20Argentina%20in%20Beijing%2C%20China.JPG;embassy;http://www.wikidata.org/entity/Q3917681;;http://www.wikidata.org/entity/Q5369544
Argentina;http://www.wikidata.org/entity/Q414;Peru;http://www.wikidata.org/entity/Q419;Lima;http://www.wikidata.org/entity/Q3031413;;-12.0649;-77.0371;;;;;;;http://commons.wikimedia.org/wiki/Special:FilePath/Sede%20Embajada%20Argentina%20en%20Per%C3%BA.jpg;embassy;http://www.wikidata.org/entity/Q3917681;;http://www.wikidata.org/entity/Q5638425
Argentina;http://www.wikidata.org/entity/Q414;Poland;http://www.wikidata.org/entity/Q36;Warsaw;http://www.wikidata.org/entity/Q270;;52.224447222;21.064547222;+48-22-617-60-28;;http://epolo.cancilleria.gov.ar/pl;;;;http://commons.wikimedia.org/wiki/Special:FilePath/Ambasada%20Argentyny%20w%20Warszawie%201.jpg;embassy;http://www.wikidata.org/entity/Q3917681;1922-01-01T00:00:00Z;http://www.wikidata.org/entity/Q9149456
Argentina;http://www.wikidata.org/entity/Q414;Russia;http://www.wikidata.org/entity/Q159;Moscow;http://www.wikidata.org/entity/Q649;;55.73083333;37.62388889;;;;;;;http://commons.wikimedia.org/wiki/Special:FilePath/Moscow%2C%20Bolshaya%20Ordynka%2072%2C%20embassy%20of%20Argentina.jpg;embassy;http://www.wikidata.org/entity/Q3917681;1947-01-01T00:00:00Z;http://www.wikidata.org/entity/Q4373969
Argentina;http://www.wikidata.org/entity/Q414;Saudi Arabia;http://www.wikidata.org/entity/Q851;Riyadh;http://www.wikidata.org/entity/Q3692;;;;;;;;;;;embassy;http://www.wikidata.org/entity/Q3917681;;http://www.wikidata.org/entity/Q68169927
Argentina;http://www.wikidata.org/entity/Q414;Sweden;http://www.wikidata.org/entity/Q34;Stockholm;http://www.wikidata.org/entity/Q1754;;59.33672222;18.09119167;;;;;;;http://commons.wikimedia.org/wiki/Special:FilePath/Embajada%20fachada%202020.jpg;embassy;http://www.wikidata.org/entity/Q3917681;;http://www.wikidata.org/entity/Q10417566
Argentina;http://www.wikidata.org/entity/Q414;Switzerland;http://www.wikidata.org/entity/Q39;Bern;http://www.wikidata.org/entity/Q70;;46.9440888;7.4546108;+41-31-356-43-43;mailto:esuiz@mrecic.gov.ar;;;;;http://commons.wikimedia.org/wiki/Special:FilePath/Bern%20Elfenstrasse%205%20Embassy%20of%20Argentina%20in%20Switzerland%20Residency%20DSC01350.jpg;embassy;http://www.wikidata.org/entity/Q3917681;;http://www.wikidata.org/entity/Q26979980
Argentina;http://www.wikidata.org/entity/Q414;Ukraine;http://www.wikidata.org/entity/Q212;Kyiv;http://www.wikidata.org/entity/Q1899;Ivana Fedorova 12, floor 6, Kyiv;50.42821252;30.51456037;+380-44-238-6922;mailto:eucra@mrecic.gov.ar;http://eucra.mrecic.gov.ar;ArgentinaEnUcrania;;;http://commons.wikimedia.org/wiki/Special:FilePath/Embassy%20Ivana%20Fedorova%2012%20in%20Kyiv%202.jpg;embassy;http://www.wikidata.org/entity/Q3917681;1993-05-01T00:00:00Z;http://www.wikidata.org/entity/Q1661719
Argentina;http://www.wikidata.org/entity/Q414;United Kingdom;http://www.wikidata.org/entity/Q145;London;http://www.wikidata.org/entity/Q84;;51.5125;-0.14875;;;;;;;http://commons.wikimedia.org/wiki/Special:FilePath/Argentine%20ambassador%27s%20residence%2C%20London.jpg;embassy;http://www.wikidata.org/entity/Q3917681;;http://www.wikidata.org/entity/Q16975289
Argentina;http://www.wikidata.org/entity/Q414;United States of America;http://www.wikidata.org/entity/Q30;Washington, D.C.;http://www.wikidata.org/entity/Q61;;38.9111;-77.0422;;;http://www.eeeuu.mrecic.gov.ar/;;;;http://commons.wikimedia.org/wiki/Special:FilePath/Embassy%20of%20Argentina%20United%20States.JPG;embassy;http://www.wikidata.org/entity/Q3917681;;http://www.wikidata.org/entity/Q5369547
Armenia;http://www.wikidata.org/entity/Q399;Austria;http://www.wikidata.org/entity/Q40;Vienna;http://www.wikidata.org/entity/Q1741;;48.18835;16.30964;;;;;;;http://commons.wikimedia.org/wiki/Special:FilePath/Wien-Penzing%20-%20Armenische%20Botschaft.jpg;embassy;http://www.wikidata.org/entity/Q3917681;;http://www.wikidata.org/entity/Q51722415
Armenia;http://www.wikidata.org/entity/Q399;Belarus;http://www.wikidata.org/entity/Q184;Minsk;http://www.wikidata.org/entity/Q2280;;53.90434;27.62103;;;;;;;;embassy;http://www.wikidata.org/entity/Q3917681;;http://www.wikidata.org/entity/Q33116785
Armenia;http://www.wikidata.org/entity/Q399;Belgium;http://www.wikidata.org/entity/Q31;Brussels;http://www.wikidata.org/entity/Q239;;50.8413;4.3703;;;;;;;http://commons.wikimedia.org/wiki/Special:FilePath/Montoyer%2026-28%20Brussels%202012-04%20B.jpg;embassy;http://www.wikidata.org/entity/Q3917681;;http://www.wikidata.org/entity/Q68193262
Armenia;http://www.wikidata.org/entity/Q399;Bulgaria;http://www.wikidata.org/entity/Q219;Sofia Capital Municipality;http://www.wikidata.org/entity/Q4442915;;42.688611111;23.353611111;;;;;;;http://commons.wikimedia.org/wiki/Special:FilePath/Armenian-embassy-in-Sofia.jpg;embassy;http://www.wikidata.org/entity/Q3917681;;http://www.wikidata.org/entity/Q31194238
Armenia;http://www.wikidata.org/entity/Q399;Canada;http://www.wikidata.org/entity/Q16;Ottawa;http://www.wikidata.org/entity/Q1930;;;;;;;;;;http://commons.wikimedia.org/wiki/Special:FilePath/Armenia%2C%20Ottawa.JPG;embassy;http://www.wikidata.org/entity/Q3917681;;http://www.wikidata.org/entity/Q5369550
Armenia;http://www.wikidata.org/entity/Q399;Czech Republic;http://www.wikidata.org/entity/Q213;Prague;http://www.wikidata.org/entity/Q1085;;;;;;;;;;http://commons.wikimedia.org/wiki/Special:FilePath/Armenian%20embassy%20Prague%20Dejvice%205711.JPG;embassy;http://www.wikidata.org/entity/Q3917681;;http://www.wikidata.org/entity/Q31194240
Armenia;http://www.wikidata.org/entity/Q399;Egypt;http://www.wikidata.org/entity/Q79;Cairo;http://www.wikidata.org/entity/Q85;;51.499;-0.193;;;;;;;http://commons.wikimedia.org/wiki/Special:FilePath/Armenian%20Embassy%20in%20Cairo.JPG;embassy;http://www.wikidata.org/entity/Q3917681;;http://www.wikidata.org/entity/Q5369548
Armenia;http://www.wikidata.org/entity/Q399;France;http://www.wikidata.org/entity/Q142;3rd arrondissement of Lyon;http://www.wikidata.org/entity/Q3348;;45.751525;4.875366;;;http://www.france.mfa.am/fr/contact/;;;;http://commons.wikimedia.org/wiki/Special:FilePath/Consulat%20g%C3%A9n%C3%A9ral%20d%27Arm%C3%A9nie%20%C3%A0%20Lyon.JPG;consulate general;http://www.wikidata.org/entity/Q372690;;http://www.wikidata.org/entity/Q55555245
Armenia;http://www.wikidata.org/entity/Q399;France;http://www.wikidata.org/entity/Q142;Marseille;http://www.wikidata.org/entity/Q23482;;43.2723;5.38453;;;;;;;;consulate general;http://www.wikidata.org/entity/Q372690;;http://www.wikidata.org/entity/Q8298044
Armenia;http://www.wikidata.org/entity/Q399;France;http://www.wikidata.org/entity/Q142;Paris;http://www.wikidata.org/entity/Q90;;48.884111;2.306472;;;http://france.mfa.am/fr;;;;http://commons.wikimedia.org/wiki/Special:FilePath/Armenian%20embassy%20in%20France%2020080511%201.jpg;embassy;http://www.wikidata.org/entity/Q3917681;;http://www.wikidata.org/entity/Q2841584
Armenia;http://www.wikidata.org/entity/Q399;Germany;http://www.wikidata.org/entity/Q183;Berlin;http://www.wikidata.org/entity/Q64;;52.517088888;13.275730555;;;http://www.germany.mfa.am/en/;;;;http://commons.wikimedia.org/wiki/Special:FilePath/Armenische%20Botschaft%2C%20Berlin.JPG;embassy;http://www.wikidata.org/entity/Q3917681;;http://www.wikidata.org/entity/Q22344384
Armenia;http://www.wikidata.org/entity/Q399;Iraq;http://www.wikidata.org/entity/Q796;Baghdad;http://www.wikidata.org/entity/Q1530;;;;;;;;;;http://commons.wikimedia.org/wiki/Special:FilePath/Armenian%20Embassy%20in%20Iraq.jpg;embassy;http://www.wikidata.org/entity/Q3917681;;http://www.wikidata.org/entity/Q48988957
Armenia;http://www.wikidata.org/entity/Q399;Italy;http://www.wikidata.org/entity/Q38;;;;;;;;http://vatican.mfa.am/en/;;;;;embassy;http://www.wikidata.org/entity/Q3917681;;http://www.wikidata.org/entity/Q56326147
Armenia;http://www.wikidata.org/entity/Q399;Netherlands;http://www.wikidata.org/entity/Q55;The Hague;http://www.wikidata.org/entity/Q36600;;52.0841;4.2931;;;;;;;;embassy;http://www.wikidata.org/entity/Q3917681;;http://www.wikidata.org/entity/Q100552798
Armenia;http://www.wikidata.org/entity/Q399;Poland;http://www.wikidata.org/entity/Q36;Warsaw;http://www.wikidata.org/entity/Q270;;52.150080555;21.022316666;+48-22-899-09-40;;http://poland.mfa.am/en/;;;;http://commons.wikimedia.org/wiki/Special:FilePath/Ambasada%20Armenii%20w%20Warszawie.jpg;embassy;http://www.wikidata.org/entity/Q3917681;1992-01-01T00:00:00Z;http://www.wikidata.org/entity/Q9149455
Armenia;http://www.wikidata.org/entity/Q399;Russia;http://www.wikidata.org/entity/Q159;Moscow;http://www.wikidata.org/entity/Q649;;55.76063889;37.63483333;;;;;;;http://commons.wikimedia.org/wiki/Special:FilePath/Moscow%2C%20embassy%20of%20Armenia%20%282%29.jpg;embassy;http://www.wikidata.org/entity/Q3917681;;http://www.wikidata.org/entity/Q4373965
Armenia;http://www.wikidata.org/entity/Q399;Sweden;http://www.wikidata.org/entity/Q34;Stockholm;http://www.wikidata.org/entity/Q1754;;59.3399979;18.0596974;;;http://www.sweden.mfa.am/;;;;http://commons.wikimedia.org/wiki/Special:FilePath/Armenian%20Embassy%20in%20Stockholm.JPG;embassy;http://www.wikidata.org/entity/Q3917681;;http://www.wikidata.org/entity/Q18287079
Armenia;http://www.wikidata.org/entity/Q399;Switzerland;http://www.wikidata.org/entity/Q39;Geneva;http://www.wikidata.org/entity/Q71;;46.2176;6.1498;;;;;;;http://commons.wikimedia.org/wiki/Special:FilePath/Ch%C3%A2teau-Banquet-16-1.jpg;embassy;http://www.wikidata.org/entity/Q3917681;;http://www.wikidata.org/entity/Q100906222
Armenia;http://www.wikidata.org/entity/Q399;Ukraine;http://www.wikidata.org/entity/Q212;Kyiv;http://www.wikidata.org/entity/Q1899;01901, Київ, вул. Володимирська,45;50.44823926;30.51455606;+380-44-234-9005;mailto:armukraineembassy@mfa.am;http://ukraine.mfa.am;;;;http://commons.wikimedia.org/wiki/Special:FilePath/Embassy%20of%20Armenia%20in%20Ukraine.jpg;embassy;http://www.wikidata.org/entity/Q3917681;1992-01-01T00:00:00Z;http://www.wikidata.org/entity/Q12142657
Armenia;http://www.wikidata.org/entity/Q399;United Kingdom;http://www.wikidata.org/entity/Q145;London;http://www.wikidata.org/entity/Q84;;51.499;-0.193;;;;;;;http://commons.wikimedia.org/wiki/Special:FilePath/Embassy%20of%20Armenia%20in%20London%201.jpg;embassy;http://www.wikidata.org/entity/Q3917681;;http://www.wikidata.org/entity/Q16891023
Armenia;http://www.wikidata.org/entity/Q399;United States of America;http://www.wikidata.org/entity/Q30;Washington, D.C.;http://www.wikidata.org/entity/Q61;;38.9126;-77.0499;;;http://www.usa.mfa.am/en/;;;;http://commons.wikimedia.org/wiki/Special:FilePath/Embassy%20of%20Armenia-Washington.JPG;embassy;http://www.wikidata.org/entity/Q3917681;1993-01-01T00:00:00Z;http://www.wikidata.org/entity/Q5369552
Austria;http://www.wikidata.org/entity/Q40;Albania;http://www.wikidata.org/entity/Q222;;;;;;+355-68-205-0267;mailto:gjergjleqejza@shkodra-honorarkonsulat.com;https://www.bmeia.gv.at/oeb-tirana/oesterreich-in-albanien/oesterreichische-stellen/;;;;;honorary consulate;http://www.wikidata.org/entity/Q23891529;;http://www.wikidata.org/entity/Q79842061
Austria;http://www.wikidata.org/entity/Q40;Belgium;http://www.wikidata.org/entity/Q31;Brussels;http://www.wikidata.org/entity/Q239;;50.8437;4.3866;;;;;;;;embassy;http://www.wikidata.org/entity/Q3917681;;http://www.wikidata.org/entity/Q67206818
Austria;http://www.wikidata.org/entity/Q40;Bosnia and Herzegovina;http://www.wikidata.org/entity/Q225;Sarajevo;http://www.wikidata.org/entity/Q11194;;43.860147;18.415578;;;http://www.bmeia.gv.at/botschaft/sarajewo.html;;;;http://commons.wikimedia.org/wiki/Special:FilePath/Austrian%20embassy%2C%20Sarajevo.jpg;embassy;http://www.wikidata.org/entity/Q3917681;;http://www.wikidata.org/entity/Q23689741
Austria;http://www.wikidata.org/entity/Q40;Czech Republic;http://www.wikidata.org/entity/Q213;Prague;http://www.wikidata.org/entity/Q1085;;50.0757;14.4025;;;https://www.bmeia.gv.at/oeb-prag/;;;;http://commons.wikimedia.org/wiki/Special:FilePath/Hrad%C4%8Dany%20pal%C3%A1c%20Hlo%C5%BEk%C5%AF%202.jpg;embassy;http://www.wikidata.org/entity/Q3917681;1919-01-01T00:00:00Z;http://www.wikidata.org/entity/Q24706394
Austria;http://www.wikidata.org/entity/Q40;Estonia;http://www.wikidata.org/entity/Q191;Tallinn City;http://www.wikidata.org/entity/Q4450503;;59.43103;24.753989;;;;;;;;embassy;http://www.wikidata.org/entity/Q3917681;1997-10-01T00:00:00Z;http://www.wikidata.org/entity/Q23689738
Austria;http://www.wikidata.org/entity/Q40;France;http://www.wikidata.org/entity/Q142;Paris;http://www.wikidata.org/entity/Q90;;48.861333;2.311278;;;http://www.bmeia.gv.at/fr/ambassade/paris.html;;;;http://commons.wikimedia.org/wiki/Special:FilePath/Austrian%20embassy%20in%20Paris.jpg;embassy;http://www.wikidata.org/entity/Q3917681;1679-01-01T00:00:00Z;http://www.wikidata.org/entity/Q15732665
Austria;http://www.wikidata.org/entity/Q40;France;http://www.wikidata.org/entity/Q142;Strasbourg;http://www.wikidata.org/entity/Q6602;;48.5914;7.75634;;;http://www.bmeia.gv.at/fr/ambassade/paris/conseils-pratiques/representations-consulaires-de-lautriche/konsulate-mit-passbefugnis/consulat-general-dautriche-a-strasbourg.html;;;;;consulate general;http://www.wikidata.org/entity/Q372690;;http://www.wikidata.org/entity/Q16010846
Austria;http://www.wikidata.org/entity/Q40;Germany;http://www.wikidata.org/entity/Q183;Mitte;http://www.wikidata.org/entity/Q163966;;52.509722222;13.363888888;;;https://www.bmeia.gv.at/oeb-berlin/;;;;http://commons.wikimedia.org/wiki/Special:FilePath/Be%20Austrian%20Embassy%2001.JPG;embassy;http://www.wikidata.org/entity/Q3917681;2001-07-05T00:00:00Z;http://www.wikidata.org/entity/Q301401
Austria;http://www.wikidata.org/entity/Q40;Germany;http://www.wikidata.org/entity/Q183;Munich;http://www.wikidata.org/entity/Q1726;;;;;;https://www.bmeia.gv.at/gk-muenchen/;;;;http://commons.wikimedia.org/wiki/Special:FilePath/Donaustr%205%20Muenchen-01.jpg;consulate general;http://www.wikidata.org/entity/Q372690;;http://www.wikidata.org/entity/Q25239331
Austria;http://www.wikidata.org/entity/Q40;Hungary;http://www.wikidata.org/entity/Q28;Budapest District VI;http://www.wikidata.org/entity/Q697679;;47.510194444;19.073111111;;;https://www.bmeia.gv.at/hu/osztrak-nagykoevetseg-budapest/;;;;http://commons.wikimedia.org/wiki/Special:FilePath/Austrian%20Embassy%2C%20Budapest%2C%20Bajza-Bancz%C3%BAr%20utca%20%282019%29.jpg;embassy;http://www.wikidata.org/entity/Q3917681;1918-01-01T00:00:00Z;http://www.wikidata.org/entity/Q66294915
Austria;http://www.wikidata.org/entity/Q40;Italy;http://www.wikidata.org/entity/Q38;Rome;http://www.wikidata.org/entity/Q220;;;;;;https://www.bmeia.gv.at/oeb-heiliger-stuhl/;;;;;embassy;http://www.wikidata.org/entity/Q3917681;;http://www.wikidata.org/entity/Q56326679
Austria;http://www.wikidata.org/entity/Q40;Japan;http://www.wikidata.org/entity/Q17;Minato-ku;http://www.wikidata.org/entity/Q190088;;35.655924;139.732681;;;;;;;http://commons.wikimedia.org/wiki/Special:FilePath/Austria%20embassy%20in%20Tokyo.jpg;embassy;http://www.wikidata.org/entity/Q3917681;;http://www.wikidata.org/entity/Q61786527
Austria;http://www.wikidata.org/entity/Q40;Kosovo;http://www.wikidata.org/entity/Q1246;Pristina;http://www.wikidata.org/entity/Q25270;;42.6611;21.1501;;;;;;;;embassy;http://www.wikidata.org/entity/Q3917681;2008-03-20T00:00:00Z;http://www.wikidata.org/entity/Q13036976
Austria;http://www.wikidata.org/entity/Q40;Latvia;http://www.wikidata.org/entity/Q211;Riga;http://www.wikidata.org/entity/Q1773;;56.95895;24.10355;;;http://www.bmeia.gv.at/botschaft/riga/;;;;http://commons.wikimedia.org/wiki/Special:FilePath/Riga%20Elizabetes%20iela%202.JPG;embassy;http://www.wikidata.org/entity/Q3917681;;http://www.wikidata.org/entity/Q23689726
Austria;http://www.wikidata.org/entity/Q40;Lebanon;http://www.wikidata.org/entity/Q822;Beirut;http://www.wikidata.org/entity/Q3820;;;;;;;;;;;embassy;http://www.wikidata.org/entity/Q3917681;;http://www.wikidata.org/entity/Q31886726
Austria;http://www.wikidata.org/entity/Q40;Lithuania;http://www.wikidata.org/entity/Q37;Vilnius;http://www.wikidata.org/entity/Q216;;54.68075278;25.28641944;;;;;;;http://commons.wikimedia.org/wiki/Special:FilePath/House%20of%20prayer%20in%20Vilnius.jpg;embassy;http://www.wikidata.org/entity/Q3917681;;http://www.wikidata.org/entity/Q301402
Austria;http://www.wikidata.org/entity/Q40;Luxembourg;http://www.wikidata.org/entity/Q32;Luxembourg;http://www.wikidata.org/entity/Q1842;;49.6133;6.1292;;;;;;;;embassy;http://www.wikidata.org/entity/Q3917681;;http://www.wikidata.org/entity/Q100781453
Austria;http://www.wikidata.org/entity/Q40;Moldova;http://www.wikidata.org/entity/Q217;Chișinău;http://www.wikidata.org/entity/Q21197;;47.01425;28.827805555;;;https://www.bmeia.gv.at/oeb-chisinau/;;;;;embassy;http://www.wikidata.org/entity/Q3917681;;http://www.wikidata.org/entity/Q5369555
Austria;http://www.wikidata.org/entity/Q40;Netherlands;http://www.wikidata.org/entity/Q55;The Hague;http://www.wikidata.org/entity/Q36600;;52.0998;4.3217;;;;;;;;embassy;http://www.wikidata.org/entity/Q3917681;;http://www.wikidata.org/entity/Q100700968
Austria;http://www.wikidata.org/entity/Q40;North Macedonia;http://www.wikidata.org/entity/Q221;Skopje;http://www.wikidata.org/entity/Q384;;41.99401;21.40774;;;http://www.bmeia.gv.at/botschaft/skopje/;;;;;embassy;http://www.wikidata.org/entity/Q3917681;;http://www.wikidata.org/entity/Q23689736
Austria;http://www.wikidata.org/entity/Q40;Norway;http://www.wikidata.org/entity/Q20;Oslo Municipality;http://www.wikidata.org/entity/Q5245991;;59.91608333;10.70418333;;;;;;;http://commons.wikimedia.org/wiki/Special:FilePath/Thomas%20Heftyes%20gate%2021.jpg;embassy;http://www.wikidata.org/entity/Q3917681;;http://www.wikidata.org/entity/Q17195232
Austria;http://www.wikidata.org/entity/Q40;Pakistan;http://www.wikidata.org/entity/Q843;Islamabad;http://www.wikidata.org/entity/Q1362;;33.7152;73.0325;;;https://www.bmeia.gv.at/en/embassy/islamabad.html;;;;;embassy;http://www.wikidata.org/entity/Q3917681;;http://www.wikidata.org/entity/Q30594578
Austria;http://www.wikidata.org/entity/Q40;Poland;http://www.wikidata.org/entity/Q36;Warsaw;http://www.wikidata.org/entity/Q270;;52.207633333;21.035877777;+48-22-841-00-81;;http://www.bmeia.gv.at/pl/ambasada/warszawa.html;;;;http://commons.wikimedia.org/wiki/Special:FilePath/Ambasada%20Austrii%20w%20Warszawie%202019.jpg;embassy;http://www.wikidata.org/entity/Q3917681;1918-01-01T00:00:00Z;http://www.wikidata.org/entity/Q9149461
Austria;http://www.wikidata.org/entity/Q40;Romania;http://www.wikidata.org/entity/Q218;Bucharest;http://www.wikidata.org/entity/Q19660;;44.444987;26.105299;;;;;;;http://commons.wikimedia.org/wiki/Special:FilePath/Austrian%20Embassy%20Buc.JPG;embassy;http://www.wikidata.org/entity/Q3917681;;http://www.wikidata.org/entity/Q2606545
Austria;http://www.wikidata.org/entity/Q40;Russia;http://www.wikidata.org/entity/Q159;Moscow;http://www.wikidata.org/entity/Q649;Starokonyushenny Lane;55.74361111;37.595;;;;;;;http://commons.wikimedia.org/wiki/Special:FilePath/Wiki%20mindovsky%20house%20by%20lazarev.jpg;embassy;http://www.wikidata.org/entity/Q3917681;;http://www.wikidata.org/entity/Q4373963
Austria;http://www.wikidata.org/entity/Q40;Saudi Arabia;http://www.wikidata.org/entity/Q851;Riyadh;http://www.wikidata.org/entity/Q3692;;24.6872;46.6259;;;;;;;;embassy;http://www.wikidata.org/entity/Q3917681;;http://www.wikidata.org/entity/Q68169934
Austria;http://www.wikidata.org/entity/Q40;Slovakia;http://www.wikidata.org/entity/Q214;Bratislava;http://www.wikidata.org/entity/Q1780;;48.1481;17.107;;;;;;;http://commons.wikimedia.org/wiki/Special:FilePath/Bratislava%20-%20Rak%C3%BAske%20ve%C4%BEvyslanectvo%2020180510.jpg;embassy;http://www.wikidata.org/entity/Q3917681;;http://www.wikidata.org/entity/Q53205319
Austria;http://www.wikidata.org/entity/Q40;Slovenia;http://www.wikidata.org/entity/Q215;Ljubljana City Municipality;http://www.wikidata.org/entity/Q3434113;;;;;;https://www.bmeia.gv.at/oeb-laibach/;;;;http://commons.wikimedia.org/wiki/Special:FilePath/Austrian%20embassy%20Ljubljana.jpg;embassy;http://www.wikidata.org/entity/Q3917681;;http://www.wikidata.org/entity/Q91726073
Austria;http://www.wikidata.org/entity/Q40;Sweden;http://www.wikidata.org/entity/Q34;Stockholm;http://www.wikidata.org/entity/Q1754;;59.33722222;18.08694444;;;;;;;http://commons.wikimedia.org/wiki/Special:FilePath/Icelands%20embassy%20in%20Stockholm.jpg;embassy;http://www.wikidata.org/entity/Q3917681;;http://www.wikidata.org/entity/Q10728089
Austria;http://www.wikidata.org/entity/Q40;Switzerland;http://www.wikidata.org/entity/Q39;Bern;http://www.wikidata.org/entity/Q70;;46.940611111;7.456527777;+41-31-356-52-52;mailto:bern-ob@bmeia.gv.at;;;;;;embassy;http://www.wikidata.org/entity/Q3917681;;http://www.wikidata.org/entity/Q26980150
Austria;http://www.wikidata.org/entity/Q40;Turkey;http://www.wikidata.org/entity/Q43;Ankara;http://www.wikidata.org/entity/Q3640;;39.9096;32.857;;;http://www.bmeia.gv.at/tr/bueyuekelcilik/ankara.html;;;;;embassy;http://www.wikidata.org/entity/Q3917681;;http://www.wikidata.org/entity/Q20476561
Austria;http://www.wikidata.org/entity/Q40;Ukraine;http://www.wikidata.org/entity/Q212;Kyiv;http://www.wikidata.org/entity/Q1899;Ivana Franka, 33, 01901 Kiew;50.445732;30.508668;+380-44-277-2790;;http://www.bmeia.gv.at/ua/posolstvo/kijevi.html;botschaftkiew;;;http://commons.wikimedia.org/wiki/Special:FilePath/Amb.austria.Kyiv2.JPG;embassy;http://www.wikidata.org/entity/Q3917681;1992-01-24T00:00:00Z;http://www.wikidata.org/entity/Q866015
Austria;http://www.wikidata.org/entity/Q40;United Kingdom;http://www.wikidata.org/entity/Q145;London;http://www.wikidata.org/entity/Q84;;51.4985;-0.154694;;;;;;;http://commons.wikimedia.org/wiki/Special:FilePath/Austrian%20embassy%20in%20London.JPG;embassy;http://www.wikidata.org/entity/Q3917681;;http://www.wikidata.org/entity/Q9149648
Austria;http://www.wikidata.org/entity/Q40;United States of America;http://www.wikidata.org/entity/Q30;Washington, D.C.;http://www.wikidata.org/entity/Q61;;38.945389;-77.069194;;;http://www.austria.org;;;;http://commons.wikimedia.org/wiki/Special:FilePath/Austrian%20embassy%20Washington%203228.JPG;embassy;http://www.wikidata.org/entity/Q3917681;;http://www.wikidata.org/entity/Q5369558
Azerbaijan;http://www.wikidata.org/entity/Q227;Austria;http://www.wikidata.org/entity/Q40;Vienna;http://www.wikidata.org/entity/Q1741;;48.18975;16.28574;;;;;;;http://commons.wikimedia.org/wiki/Special:FilePath/Moservilla071029.jpg;embassy;http://www.wikidata.org/entity/Q3917681;;http://www.wikidata.org/entity/Q12836873
Azerbaijan;http://www.wikidata.org/entity/Q227;Belarus;http://www.wikidata.org/entity/Q184;Minsk;http://www.wikidata.org/entity/Q2280;;53.9221608;27.5475655;;;;;;;http://commons.wikimedia.org/wiki/Special:FilePath/Embassy%20of%20Azerbaijan%20in%20Belarus%20%E2%80%94%20%D0%9F%D0%BE%D1%81%D0%BE%D0%BB%D1%8C%D1%81%D1%82%D0%B2%D0%BE%20%D0%90%D0%B7%D0%B5%D1%80%D0%B1%D0%B0%D0%B9%D0%B4%D0%B6%D0%B0%D0%BD%D0%B0%20%D0%B2%20%D0%91%D0%B5%D0%BB%D0%B0%D1%80%D1%83%D1%81%D0%B8%201.jpg;embassy;http://www.wikidata.org/entity/Q3917681;;http://www.wikidata.org/entity/Q12836871
Azerbaijan;http://www.wikidata.org/entity/Q227;Belgium;http://www.wikidata.org/entity/Q31;Woluwe-Saint-Pierre;http://www.wikidata.org/entity/Q242393;;50.835;4.4221;;;;;;;;embassy;http://www.wikidata.org/entity/Q3917681;;http://www.wikidata.org/entity/Q12836872
Azerbaijan;http://www.wikidata.org/entity/Q227;Bosnia and Herzegovina;http://www.wikidata.org/entity/Q225;Centar Municipality;http://www.wikidata.org/entity/Q1270190;;43.836972222;18.317444444;;;https://sarajevo.mfa.gov.az/;;;;http://commons.wikimedia.org/wiki/Special:FilePath/Azebaijani%20Embassy%2C%20Sarajevo%201.jpg;embassy;http://www.wikidata.org/entity/Q3917681;;http://www.wikidata.org/entity/Q96216530
Azerbaijan;http://www.wikidata.org/entity/Q227;Bulgaria;http://www.wikidata.org/entity/Q219;Sofia Capital Municipality;http://www.wikidata.org/entity/Q4442915;;42.674444444;23.351944444;;;;;;;;embassy;http://www.wikidata.org/entity/Q3917681;;http://www.wikidata.org/entity/Q12836876
Azerbaijan;http://www.wikidata.org/entity/Q227;Canada;http://www.wikidata.org/entity/Q16;Ottawa;http://www.wikidata.org/entity/Q1930;;;;;;;;;;;embassy;http://www.wikidata.org/entity/Q3917681;;http://www.wikidata.org/entity/Q5369560
Azerbaijan;http://www.wikidata.org/entity/Q227;Cuba;http://www.wikidata.org/entity/Q241;Havana;http://www.wikidata.org/entity/Q1563;;;;;;;;;;;embassy;http://www.wikidata.org/entity/Q3917681;;http://www.wikidata.org/entity/Q12836881
Azerbaijan;http://www.wikidata.org/entity/Q227;Czech Republic;http://www.wikidata.org/entity/Q213;Prague;http://www.wikidata.org/entity/Q1085;;;;;;;;;;http://commons.wikimedia.org/wiki/Special:FilePath/Azerbaidjani%20embassy%20Prague%201785.JPG;embassy;http://www.wikidata.org/entity/Q3917681;;http://www.wikidata.org/entity/Q12836907
Azerbaijan;http://www.wikidata.org/entity/Q227;Egypt;http://www.wikidata.org/entity/Q79;Cairo;http://www.wikidata.org/entity/Q85;;;;;;;;;;;embassy;http://www.wikidata.org/entity/Q3917681;;http://www.wikidata.org/entity/Q16418143
Azerbaijan;http://www.wikidata.org/entity/Q227;Estonia;http://www.wikidata.org/entity/Q191;;;;;;;;;;;;;embassy;http://www.wikidata.org/entity/Q3917681;;http://www.wikidata.org/entity/Q65261591
Azerbaijan;http://www.wikidata.org/entity/Q227;France;http://www.wikidata.org/entity/Q142;Paris;http://www.wikidata.org/entity/Q90;;48.870861;2.295778;;;https://www.azambassade.fr;;;;http://commons.wikimedia.org/wiki/Special:FilePath/Azerbaijani%20embassy%20in%20Paris.jpg;embassy;http://www.wikidata.org/entity/Q3917681;;http://www.wikidata.org/entity/Q2841586
Azerbaijan;http://www.wikidata.org/entity/Q227;Georgia;http://www.wikidata.org/entity/Q230;Tbilisi;http://www.wikidata.org/entity/Q994;;;;;;;;;;;embassy;http://www.wikidata.org/entity/Q3917681;;http://www.wikidata.org/entity/Q12836879
Azerbaijan;http://www.wikidata.org/entity/Q227;Germany;http://www.wikidata.org/entity/Q183;Berlin;http://www.wikidata.org/entity/Q64;;52.487611111;13.284111111;;;http://www.berlin.mfa.gov.az/de;;;;http://commons.wikimedia.org/wiki/Special:FilePath/Hubertusallee%2043%20Berlin-Grunewald.jpg;embassy;http://www.wikidata.org/entity/Q3917681;1992-01-01T00:00:00Z;http://www.wikidata.org/entity/Q724015
Azerbaijan;http://www.wikidata.org/entity/Q227;Greece;http://www.wikidata.org/entity/Q41;Athens;http://www.wikidata.org/entity/Q1524;;;;;;http://www.azembassy.gr/;;;;;embassy;http://www.wikidata.org/entity/Q3917681;;http://www.wikidata.org/entity/Q16418280
Azerbaijan;http://www.wikidata.org/entity/Q227;Hungary;http://www.wikidata.org/entity/Q28;Budapest District VI;http://www.wikidata.org/entity/Q697679;;47.5055;19.064944444;;;http://budapest.mfa.gov.az/;;;;http://commons.wikimedia.org/wiki/Special:FilePath/Azerbaijani%20Embassy%2C%20facade%2C%20Eotvos%20Street%2C%202016%20Terezvaros.jpg;embassy;http://www.wikidata.org/entity/Q3917681;;http://www.wikidata.org/entity/Q20580549
Azerbaijan;http://www.wikidata.org/entity/Q227;India;http://www.wikidata.org/entity/Q668;New Delhi;http://www.wikidata.org/entity/Q987;Vasant Marg, Vasant Vihar E-70;28.5643;77.1555;+91-26152228;mailto:newdelhi@mission.mfa.gov.az;;;;;;embassy;http://www.wikidata.org/entity/Q3917681;;http://www.wikidata.org/entity/Q12836878
Azerbaijan;http://www.wikidata.org/entity/Q227;Indonesia;http://www.wikidata.org/entity/Q252;Jakarta;http://www.wikidata.org/entity/Q3630;;;;;;;;;;;embassy;http://www.wikidata.org/entity/Q3917681;;http://www.wikidata.org/entity/Q12836909
Azerbaijan;http://www.wikidata.org/entity/Q227;Iran;http://www.wikidata.org/entity/Q794;Tabriz;http://www.wikidata.org/entity/Q80053;;38.05817831;46.35584319;;;;;;;;consulate general;http://www.wikidata.org/entity/Q372690;;http://www.wikidata.org/entity/Q5740059
Azerbaijan;http://www.wikidata.org/entity/Q227;Iran;http://www.wikidata.org/entity/Q794;Tehran;http://www.wikidata.org/entity/Q3616;;;;;;http://tehran.mfa.gov.az/;;;;;embassy;http://www.wikidata.org/entity/Q3917681;;http://www.wikidata.org/entity/Q12836903
Azerbaijan;http://www.wikidata.org/entity/Q227;Italy;http://www.wikidata.org/entity/Q38;Rome;http://www.wikidata.org/entity/Q220;;;;;;;;;;;embassy;http://www.wikidata.org/entity/Q3917681;;http://www.wikidata.org/entity/Q12836911
Azerbaijan;http://www.wikidata.org/entity/Q227;Japan;http://www.wikidata.org/entity/Q17;Meguro-ku;http://www.wikidata.org/entity/Q233903;;35.626144444;139.668475;;;http://www.azembassy.jp/English/;azembassyjp;AzEmbJapan;;http://commons.wikimedia.org/wiki/Special:FilePath/%E3%82%A2%E3%82%BC%E3%83%AB%E3%83%90%E3%82%A4%E3%82%B8%E3%83%A3%E3%83%B3%E5%A4%A7%E4%BD%BF%E9%A4%A8%E5%85%A8%E6%99%AF.jpg;embassy;http://www.wikidata.org/entity/Q3917681;;http://www.wikidata.org/entity/Q16417892
Azerbaijan;http://www.wikidata.org/entity/Q227;Jordan;http://www.wikidata.org/entity/Q810;Amman;http://www.wikidata.org/entity/Q3805;;;;;;;;;;;embassy;http://www.wikidata.org/entity/Q3917681;;http://www.wikidata.org/entity/Q12836905
Azerbaijan;http://www.wikidata.org/entity/Q227;Kazakhstan;http://www.wikidata.org/entity/Q232;Nur-Sultan;http://www.wikidata.org/entity/Q1520;;;;;;;;;;;embassy;http://www.wikidata.org/entity/Q3917681;;http://www.wikidata.org/entity/Q12836888
Azerbaijan;http://www.wikidata.org/entity/Q227;Kuwait;http://www.wikidata.org/entity/Q817;Kuwait City;http://www.wikidata.org/entity/Q35178;;;;;;;;;;;embassy;http://www.wikidata.org/entity/Q3917681;;http://www.wikidata.org/entity/Q12836882
Azerbaijan;http://www.wikidata.org/entity/Q227;Kyrgyzstan;http://www.wikidata.org/entity/Q813;Bishkek;http://www.wikidata.org/entity/Q9361;;;;;mailto:biskek@mission.mfa.gov.az;;;;;;embassy;http://www.wikidata.org/entity/Q3917681;;http://www.wikidata.org/entity/Q12836887
Azerbaijan;http://www.wikidata.org/entity/Q227;Latvia;http://www.wikidata.org/entity/Q211;Riga;http://www.wikidata.org/entity/Q1773;;;;;;http://riga.mfa.gov.az/;;;;;embassy;http://www.wikidata.org/entity/Q3917681;;http://www.wikidata.org/entity/Q12836880
Azerbaijan;http://www.wikidata.org/entity/Q227;Libya;http://www.wikidata.org/entity/Q1016;;;;;;;;;;;;;embassy;http://www.wikidata.org/entity/Q3917681;;http://www.wikidata.org/entity/Q20580349
Azerbaijan;http://www.wikidata.org/entity/Q227;Lithuania;http://www.wikidata.org/entity/Q37;;;;;;;;;;;;;embassy;http://www.wikidata.org/entity/Q3917681;;http://www.wikidata.org/entity/Q20580338
Azerbaijan;http://www.wikidata.org/entity/Q227;Malaysia;http://www.wikidata.org/entity/Q833;Kuala Lumpur;http://www.wikidata.org/entity/Q1865;;;;;;;;;;;embassy;http://www.wikidata.org/entity/Q3917681;;http://www.wikidata.org/entity/Q20580579
Azerbaijan;http://www.wikidata.org/entity/Q227;Mexico;http://www.wikidata.org/entity/Q96;Mexico City;http://www.wikidata.org/entity/Q1489;;;;;;;;;;;embassy;http://www.wikidata.org/entity/Q3917681;;http://www.wikidata.org/entity/Q12836883
Azerbaijan;http://www.wikidata.org/entity/Q227;Moldova;http://www.wikidata.org/entity/Q217;;;;;;;;;;;;;embassy;http://www.wikidata.org/entity/Q3917681;;http://www.wikidata.org/entity/Q12836884
Azerbaijan;http://www.wikidata.org/entity/Q227;Morocco;http://www.wikidata.org/entity/Q1028;egepto;http://www.wikidata.org/entity/Q3551;;;;;mailto:azembma@menara.ma;;;;;;embassy;http://www.wikidata.org/entity/Q3917681;;http://www.wikidata.org/entity/Q16418706
Azerbaijan;http://www.wikidata.org/entity/Q227;Netherlands;http://www.wikidata.org/entity/Q55;The Hague;http://www.wikidata.org/entity/Q36600;;52.0880567;4.2852662;;;http://hague.mfa.gov.az/;;;;;embassy;http://www.wikidata.org/entity/Q3917681;;http://www.wikidata.org/entity/Q12836886
Azerbaijan;http://www.wikidata.org/entity/Q227;Pakistan;http://www.wikidata.org/entity/Q843;Islamabad;http://www.wikidata.org/entity/Q1362;;33.7208;73.0928;;;http://islamabad.mfa.gov.az;;;;;embassy;http://www.wikidata.org/entity/Q3917681;;http://www.wikidata.org/entity/Q16414377
Azerbaijan;http://www.wikidata.org/entity/Q227;People's Republic of China;http://www.wikidata.org/entity/Q148;Beijing;http://www.wikidata.org/entity/Q956;;;;;;;;;;;embassy;http://www.wikidata.org/entity/Q3917681;;http://www.wikidata.org/entity/Q12836908
Azerbaijan;http://www.wikidata.org/entity/Q227;Poland;http://www.wikidata.org/entity/Q36;Warsaw;http://www.wikidata.org/entity/Q270;;52.2309;21.0534;+48-22-616-21-88;;http://azembassy.pl/pl/index.php?section=11;;;;http://commons.wikimedia.org/wiki/Special:FilePath/Waw%20azerbejdzan11.jpg;embassy;http://www.wikidata.org/entity/Q3917681;1992-01-01T00:00:00Z;http://www.wikidata.org/entity/Q9149463
Azerbaijan;http://www.wikidata.org/entity/Q227;Qatar;http://www.wikidata.org/entity/Q846;Qatar;http://www.wikidata.org/entity/Q846;;;;;;;;;;;embassy;http://www.wikidata.org/entity/Q3917681;;http://www.wikidata.org/entity/Q12836889
Azerbaijan;http://www.wikidata.org/entity/Q227;Romania;http://www.wikidata.org/entity/Q218;Bucharest;http://www.wikidata.org/entity/Q19660;;;;;;http://bucharest.mfa.gov.az/;;;;;embassy;http://www.wikidata.org/entity/Q3917681;;http://www.wikidata.org/entity/Q16416246
Azerbaijan;http://www.wikidata.org/entity/Q227;Russia;http://www.wikidata.org/entity/Q159;Moscow;http://www.wikidata.org/entity/Q649;16 Leontyevsky Lane;55.76055556;37.60527778;;;http://www.azembassy.msk.ru/;;;;http://commons.wikimedia.org/wiki/Special:FilePath/Moscow%2C%20Leontyevsky%2016%2C%20Embassy%20of%20Azerbaidzhan.jpg;embassy;http://www.wikidata.org/entity/Q3917681;;http://www.wikidata.org/entity/Q2561806
Azerbaijan;http://www.wikidata.org/entity/Q227;Saudi Arabia;http://www.wikidata.org/entity/Q851;;;;;;;;;;;;;embassy;http://www.wikidata.org/entity/Q3917681;;http://www.wikidata.org/entity/Q16417375
Azerbaijan;http://www.wikidata.org/entity/Q227;Serbia;http://www.wikidata.org/entity/Q403;Belgrade;http://www.wikidata.org/entity/Q3711;;44.7577;20.4539;;;http://belgrade.mfa.gov.az/;;;;;embassy;http://www.wikidata.org/entity/Q3917681;;http://www.wikidata.org/entity/Q16416671
Azerbaijan;http://www.wikidata.org/entity/Q227;South Korea;http://www.wikidata.org/entity/Q884;Seoul;http://www.wikidata.org/entity/Q8684;;;;;;http://www.azembassy.co.kr;;;;;embassy;http://www.wikidata.org/entity/Q3917681;;http://www.wikidata.org/entity/Q12836874
Azerbaijan;http://www.wikidata.org/entity/Q227;Spain;http://www.wikidata.org/entity/Q29;Madrid;http://www.wikidata.org/entity/Q2807;;;;;;;;;;;embassy;http://www.wikidata.org/entity/Q3917681;;http://www.wikidata.org/entity/Q12836910
Azerbaijan;http://www.wikidata.org/entity/Q227;Sweden;http://www.wikidata.org/entity/Q34;Stockholm;http://www.wikidata.org/entity/Q1754;;59.3363;18.058;;;;;;;http://commons.wikimedia.org/wiki/Special:FilePath/Embassies%20of%20Azerbaijan%20in%20Stockholm.JPG;embassy;http://www.wikidata.org/entity/Q3917681;;http://www.wikidata.org/entity/Q13487914
Azerbaijan;http://www.wikidata.org/entity/Q227;Switzerland;http://www.wikidata.org/entity/Q39;Bern;http://www.wikidata.org/entity/Q70;;46.9428566;7.4606445;+41-31-350-50-40;mailto:bern@mission.mfa.gov.az;http://bern.mfa.gov.az/;;;;http://commons.wikimedia.org/wiki/Special:FilePath/EmbassyAzerba%C3%AFdjan.JPG;embassy;http://www.wikidata.org/entity/Q3917681;;http://www.wikidata.org/entity/Q12836562
Azerbaijan;http://www.wikidata.org/entity/Q227;Tajikistan;http://www.wikidata.org/entity/Q863;;;;;;;;;;;;;embassy;http://www.wikidata.org/entity/Q3917681;;http://www.wikidata.org/entity/Q12836890
Azerbaijan;http://www.wikidata.org/entity/Q227;Turkey;http://www.wikidata.org/entity/Q43;Ankara;http://www.wikidata.org/entity/Q3640;;;;;;;;;;;embassy;http://www.wikidata.org/entity/Q3917681;;http://www.wikidata.org/entity/Q12836547
Azerbaijan;http://www.wikidata.org/entity/Q227;Turkmenistan;http://www.wikidata.org/entity/Q874;;;;;;;;;;;;;embassy;http://www.wikidata.org/entity/Q3917681;;http://www.wikidata.org/entity/Q16417800
Azerbaijan;http://www.wikidata.org/entity/Q227;Ukraine;http://www.wikidata.org/entity/Q212;Kyiv;http://www.wikidata.org/entity/Q1899;;50.46082135;30.49056162;+380-44-484-6940;mailto:kiev@mission.mfa.gov.az;http://kiev.mfa.gov.az/;AzEmbUkraine;AzEmbUkraine;;http://commons.wikimedia.org/wiki/Special:FilePath/Embassy%20of%20Azerbaijan1%20in%20Kyiv.jpg;embassy;http://www.wikidata.org/entity/Q3917681;1997-03-12T00:00:00Z;http://www.wikidata.org/entity/Q5369559
Azerbaijan;http://www.wikidata.org/entity/Q227;United Arab Emirates;http://www.wikidata.org/entity/Q878;;;;;;;;;;;;;embassy;http://www.wikidata.org/entity/Q3917681;;http://www.wikidata.org/entity/Q12836877
Azerbaijan;http://www.wikidata.org/entity/Q227;United Kingdom;http://www.wikidata.org/entity/Q145;London;http://www.wikidata.org/entity/Q84;;51.5018;-0.186889;;;http://london.mfa.gov.az;;;;http://commons.wikimedia.org/wiki/Special:FilePath/Embassy%20of%20Azerbaijan%20in%20London%201.jpg;embassy;http://www.wikidata.org/entity/Q3917681;;http://www.wikidata.org/entity/Q16971199
Azerbaijan;http://www.wikidata.org/entity/Q227;United States of America;http://www.wikidata.org/entity/Q30;Washington, D.C.;http://www.wikidata.org/entity/Q61;;38.926;-77.0662;;;http://www.azembassy.us/;;;;http://commons.wikimedia.org/wiki/Special:FilePath/Embassy%20of%20Azerbaijan.JPG;embassy;http://www.wikidata.org/entity/Q3917681;1992-01-01T00:00:00Z;http://www.wikidata.org/entity/Q5369561
Azerbaijan;http://www.wikidata.org/entity/Q227;Uzbekistan;http://www.wikidata.org/entity/Q265;;;;;;;;;;;;;embassy;http://www.wikidata.org/entity/Q3917681;;http://www.wikidata.org/entity/Q12836906
Bahrain;http://www.wikidata.org/entity/Q398;Algeria;http://www.wikidata.org/entity/Q262;Algiers;http://www.wikidata.org/entity/Q3561;;;;;;;;;;;embassy;http://www.wikidata.org/entity/Q3917681;;http://www.wikidata.org/entity/Q68170714
Bahrain;http://www.wikidata.org/entity/Q398;Belgium;http://www.wikidata.org/entity/Q31;Brussels;http://www.wikidata.org/entity/Q239;;50.8079;4.3853;;;;;;;http://commons.wikimedia.org/wiki/Special:FilePath/Bruxelles%20-%20Ambassade%20de%20Bahre%C3%AFn%2020190907-01.jpg;embassy;http://www.wikidata.org/entity/Q3917681;;http://www.wikidata.org/entity/Q67382276
Bahrain;http://www.wikidata.org/entity/Q398;Brazil;http://www.wikidata.org/entity/Q155;Brasília;http://www.wikidata.org/entity/Q2844;;;;;;;;;;;embassy;http://www.wikidata.org/entity/Q3917681;;http://www.wikidata.org/entity/Q68170729
Bahrain;http://www.wikidata.org/entity/Q398;Egypt;http://www.wikidata.org/entity/Q79;Cairo;http://www.wikidata.org/entity/Q85;;;;;;;;;;;embassy;http://www.wikidata.org/entity/Q3917681;;http://www.wikidata.org/entity/Q68170734
Bahrain;http://www.wikidata.org/entity/Q398;France;http://www.wikidata.org/entity/Q142;Paris;http://www.wikidata.org/entity/Q90;;48.867639;2.294389;;;http://www.ambahrein-france.com;;;;http://commons.wikimedia.org/wiki/Special:FilePath/Bahraini%20embassy%20in%20Paris.jpg;embassy;http://www.wikidata.org/entity/Q3917681;;http://www.wikidata.org/entity/Q2841598
Bahrain;http://www.wikidata.org/entity/Q398;Germany;http://www.wikidata.org/entity/Q183;Berlin;http://www.wikidata.org/entity/Q64;;52.506972;13.351444;;;https://www.mofa.gov.bh/Default.aspx?tabid=4355&language=en-US;;;;;embassy;http://www.wikidata.org/entity/Q3917681;;http://www.wikidata.org/entity/Q56338700
Bahrain;http://www.wikidata.org/entity/Q398;India;http://www.wikidata.org/entity/Q668;New Delhi;http://www.wikidata.org/entity/Q987;;;;;;;;;;;embassy;http://www.wikidata.org/entity/Q3917681;;http://www.wikidata.org/entity/Q68170751
Bahrain;http://www.wikidata.org/entity/Q398;Indonesia;http://www.wikidata.org/entity/Q252;;;;;;;;;;;;;embassy;http://www.wikidata.org/entity/Q3917681;;http://www.wikidata.org/entity/Q68170741
Bahrain;http://www.wikidata.org/entity/Q398;Iraq;http://www.wikidata.org/entity/Q796;Baghdad;http://www.wikidata.org/entity/Q1530;;;;;;;;;;;embassy;http://www.wikidata.org/entity/Q3917681;;http://www.wikidata.org/entity/Q68170721
Bahrain;http://www.wikidata.org/entity/Q398;Italy;http://www.wikidata.org/entity/Q38;Rome;http://www.wikidata.org/entity/Q220;;;;;;;;;;;embassy;http://www.wikidata.org/entity/Q3917681;;http://www.wikidata.org/entity/Q68170760
Bahrain;http://www.wikidata.org/entity/Q398;Japan;http://www.wikidata.org/entity/Q17;Tokyo;http://www.wikidata.org/entity/Q1490;;35.668751;139.741713;;;;;;;;embassy;http://www.wikidata.org/entity/Q3917681;;http://www.wikidata.org/entity/Q61925022
Bahrain;http://www.wikidata.org/entity/Q398;Jordan;http://www.wikidata.org/entity/Q810;;;;;;;;;;;;;embassy;http://www.wikidata.org/entity/Q3917681;;http://www.wikidata.org/entity/Q68170716
Bahrain;http://www.wikidata.org/entity/Q398;Kuwait;http://www.wikidata.org/entity/Q817;;;;;;;;;;;;;embassy;http://www.wikidata.org/entity/Q3917681;;http://www.wikidata.org/entity/Q68170747
Bahrain;http://www.wikidata.org/entity/Q398;Morocco;http://www.wikidata.org/entity/Q1028;;;;;;;;;;;;;embassy;http://www.wikidata.org/entity/Q3917681;;http://www.wikidata.org/entity/Q68170759
Bahrain;http://www.wikidata.org/entity/Q398;Oman;http://www.wikidata.org/entity/Q842;;;;;;;;;;;;;embassy;http://www.wikidata.org/entity/Q3917681;;http://www.wikidata.org/entity/Q68170754
Bahrain;http://www.wikidata.org/entity/Q398;Pakistan;http://www.wikidata.org/entity/Q843;Islamabad;http://www.wikidata.org/entity/Q1362;;33.7396;73.0805;;;http://www.mofa.gov.bh/islamabad;;;;;embassy;http://www.wikidata.org/entity/Q3917681;;http://www.wikidata.org/entity/Q30594665
Bahrain;http://www.wikidata.org/entity/Q398;People's Republic of China;http://www.wikidata.org/entity/Q148;;;;;;;;;;;;;embassy;http://www.wikidata.org/entity/Q3917681;;http://www.wikidata.org/entity/Q68170725
Bahrain;http://www.wikidata.org/entity/Q398;Russia;http://www.wikidata.org/entity/Q159;Moscow;http://www.wikidata.org/entity/Q649;;55.727583333;37.616;;;;;;;http://commons.wikimedia.org/wiki/Special:FilePath/Mytnaya%20Street%203.jpg;embassy;http://www.wikidata.org/entity/Q3917681;;http://www.wikidata.org/entity/Q4373967
Bahrain;http://www.wikidata.org/entity/Q398;Saudi Arabia;http://www.wikidata.org/entity/Q851;Riyadh;http://www.wikidata.org/entity/Q3692;;24.6823;46.6261;;;;;;;;embassy;http://www.wikidata.org/entity/Q3917681;;http://www.wikidata.org/entity/Q68169936
Bahrain;http://www.wikidata.org/entity/Q398;Thailand;http://www.wikidata.org/entity/Q869;;;;;;;;;;;;;embassy;http://www.wikidata.org/entity/Q3917681;;http://www.wikidata.org/entity/Q68170723
Bahrain;http://www.wikidata.org/entity/Q398;Tunisia;http://www.wikidata.org/entity/Q948;Tunis;http://www.wikidata.org/entity/Q3572;;36.8356;10.2394;;;;;;;;embassy;http://www.wikidata.org/entity/Q3917681;;http://www.wikidata.org/entity/Q68170766
Bahrain;http://www.wikidata.org/entity/Q398;Turkey;http://www.wikidata.org/entity/Q43;;;;;;;;;;;;;embassy;http://www.wikidata.org/entity/Q3917681;;http://www.wikidata.org/entity/Q68170719
Bahrain;http://www.wikidata.org/entity/Q398;United Arab Emirates;http://www.wikidata.org/entity/Q878;;;;;;;;;;;;;embassy;http://www.wikidata.org/entity/Q3917681;;http://www.wikidata.org/entity/Q68170711
Bahrain;http://www.wikidata.org/entity/Q398;United Kingdom;http://www.wikidata.org/entity/Q145;London;http://www.wikidata.org/entity/Q84;;51.4984;-0.1525;;;;;;;;embassy;http://www.wikidata.org/entity/Q3917681;;http://www.wikidata.org/entity/Q68170749
Bahrain;http://www.wikidata.org/entity/Q398;United States of America;http://www.wikidata.org/entity/Q30;Washington, D.C.;http://www.wikidata.org/entity/Q61;;38.9411;-77.0658;;;http://www.bahrainembassy.org/;;;;http://commons.wikimedia.org/wiki/Special:FilePath/Bahrain%20embassy%20Washington%203215.jpg;embassy;http://www.wikidata.org/entity/Q3917681;;http://www.wikidata.org/entity/Q5369564
Bangladesh;http://www.wikidata.org/entity/Q902;Algeria;http://www.wikidata.org/entity/Q262;Algiers;http://www.wikidata.org/entity/Q3561;;36.765291666;3.032227777;;;;;;;;embassy;http://www.wikidata.org/entity/Q3917681;;http://www.wikidata.org/entity/Q83584109
Bangladesh;http://www.wikidata.org/entity/Q902;Australia;http://www.wikidata.org/entity/Q408;;;;-35.350705555;149.106905555;;;;;;;http://commons.wikimedia.org/wiki/Special:FilePath/High%20Commission%20of%20Bangladesh%20to%20Australia%20June%202014.jpg;high commission;http://www.wikidata.org/entity/Q18414273;;http://www.wikidata.org/entity/Q83584111
Bangladesh;http://www.wikidata.org/entity/Q902;Austria;http://www.wikidata.org/entity/Q40;;;;48.242644444;16.349611111;;;;;;;;embassy;http://www.wikidata.org/entity/Q3917681;;http://www.wikidata.org/entity/Q65063736
Bangladesh;http://www.wikidata.org/entity/Q902;Bahrain;http://www.wikidata.org/entity/Q398;;;;26.219141666;50.559422222;;;;;;;;embassy;http://www.wikidata.org/entity/Q3917681;;http://www.wikidata.org/entity/Q68170372
Bangladesh;http://www.wikidata.org/entity/Q902;Belgium;http://www.wikidata.org/entity/Q31;Brussels;http://www.wikidata.org/entity/Q239;;50.8209;4.3681;;;;;;;;embassy;http://www.wikidata.org/entity/Q3917681;;http://www.wikidata.org/entity/Q68194718
Bangladesh;http://www.wikidata.org/entity/Q902;Bhutan;http://www.wikidata.org/entity/Q917;;;;27.476813888;89.633108333;;;;;;;;embassy;http://www.wikidata.org/entity/Q3917681;;http://www.wikidata.org/entity/Q83584114
Bangladesh;http://www.wikidata.org/entity/Q902;Brazil;http://www.wikidata.org/entity/Q155;;;;-15.839333333;-47.839219444;;;;;;;;embassy;http://www.wikidata.org/entity/Q3917681;;http://www.wikidata.org/entity/Q83584116
Bangladesh;http://www.wikidata.org/entity/Q902;Brunei;http://www.wikidata.org/entity/Q921;;;;4.941952777;114.968047222;;;;;;;;high commission;http://www.wikidata.org/entity/Q18414273;;http://www.wikidata.org/entity/Q83584118
Bangladesh;http://www.wikidata.org/entity/Q902;Canada;http://www.wikidata.org/entity/Q16;;;;45.418644444;-75.705577777;;;;;;;;high commission;http://www.wikidata.org/entity/Q18414273;;http://www.wikidata.org/entity/Q83584119
Bangladesh;http://www.wikidata.org/entity/Q902;Denmark;http://www.wikidata.org/entity/Q35;;;;55.770986111;12.595472222;;;;;;;;embassy;http://www.wikidata.org/entity/Q3917681;;http://www.wikidata.org/entity/Q83584124
Bangladesh;http://www.wikidata.org/entity/Q902;Egypt;http://www.wikidata.org/entity/Q79;;;;30.041847222;31.206083333;;;;;;;;embassy;http://www.wikidata.org/entity/Q3917681;;http://www.wikidata.org/entity/Q83584126
Bangladesh;http://www.wikidata.org/entity/Q902;Ethiopia;http://www.wikidata.org/entity/Q115;;;;8.986744444;38.724086111;;;;;;;;embassy;http://www.wikidata.org/entity/Q3917681;;http://www.wikidata.org/entity/Q83584127
Bangladesh;http://www.wikidata.org/entity/Q902;France;http://www.wikidata.org/entity/Q142;Paris;http://www.wikidata.org/entity/Q90;;48.863055555;2.270583333;;;http://bangladoot-paris.org;;;;http://commons.wikimedia.org/wiki/Special:FilePath/Bangladeshi%20embassy%20in%20Paris%202.jpg;embassy;http://www.wikidata.org/entity/Q3917681;;http://www.wikidata.org/entity/Q20669714
Bangladesh;http://www.wikidata.org/entity/Q902;Germany;http://www.wikidata.org/entity/Q183;Berlin;http://www.wikidata.org/entity/Q64;;52.525383;13.322542;;;;;;;http://commons.wikimedia.org/wiki/Special:FilePath/MoabitKaiserinAugustaAlee.jpg;embassy;http://www.wikidata.org/entity/Q3917681;;http://www.wikidata.org/entity/Q101422584
Bangladesh;http://www.wikidata.org/entity/Q902;Germany;http://www.wikidata.org/entity/Q183;Berlin;http://www.wikidata.org/entity/Q64;;52.5254;13.3221;;;http://www.bangladeshembassy.de/;;;;;embassy;http://www.wikidata.org/entity/Q3917681;;http://www.wikidata.org/entity/Q73149317
Bangladesh;http://www.wikidata.org/entity/Q902;Greece;http://www.wikidata.org/entity/Q41;;;;38.014902777;23.784186111;;;;;;;;embassy;http://www.wikidata.org/entity/Q3917681;;http://www.wikidata.org/entity/Q83584129
Bangladesh;http://www.wikidata.org/entity/Q902;India;http://www.wikidata.org/entity/Q668;New Delhi;http://www.wikidata.org/entity/Q987;;28.589902777;77.17615;;;;;;;;high commission;http://www.wikidata.org/entity/Q18414273;;http://www.wikidata.org/entity/Q83584131
Bangladesh;http://www.wikidata.org/entity/Q902;Indonesia;http://www.wikidata.org/entity/Q252;;;;-6.225597222;106.828494444;;;;;;;;embassy;http://www.wikidata.org/entity/Q3917681;;http://www.wikidata.org/entity/Q83584132
Bangladesh;http://www.wikidata.org/entity/Q902;Iran;http://www.wikidata.org/entity/Q794;;;;35.745897222;51.402580555;;;;;;;;embassy;http://www.wikidata.org/entity/Q3917681;;http://www.wikidata.org/entity/Q83584134
Bangladesh;http://www.wikidata.org/entity/Q902;Iraq;http://www.wikidata.org/entity/Q796;;;;33.308619444;44.353213888;;;;;;;;embassy;http://www.wikidata.org/entity/Q3917681;;http://www.wikidata.org/entity/Q83584137
Bangladesh;http://www.wikidata.org/entity/Q902;Italy;http://www.wikidata.org/entity/Q38;;;;41.825386111;12.464008333;;;;;;;;embassy;http://www.wikidata.org/entity/Q3917681;;http://www.wikidata.org/entity/Q83584138
Bangladesh;http://www.wikidata.org/entity/Q902;Japan;http://www.wikidata.org/entity/Q17;Chiyoda-ku;http://www.wikidata.org/entity/Q214051;;35.681839;139.73758;;;;;;;http://commons.wikimedia.org/wiki/Special:FilePath/%E3%83%90%E3%83%B3%E3%82%B0%E3%83%A9%E3%83%87%E3%82%A3%E3%82%B7%E3%83%A5%E5%A4%A7%E4%BD%BF%E9%A4%A8%E5%85%A8%E6%99%AF.jpg;embassy;http://www.wikidata.org/entity/Q3917681;;http://www.wikidata.org/entity/Q52213274
Bangladesh;http://www.wikidata.org/entity/Q902;Jordan;http://www.wikidata.org/entity/Q810;;;;31.962008333;35.876272222;;;;;;;;embassy;http://www.wikidata.org/entity/Q3917681;;http://www.wikidata.org/entity/Q83584140
Bangladesh;http://www.wikidata.org/entity/Q902;Kenya;http://www.wikidata.org/entity/Q114;;;;-1.294666666;36.774155555;;;;;;;;high commission;http://www.wikidata.org/entity/Q18414273;;http://www.wikidata.org/entity/Q83584142
Bangladesh;http://www.wikidata.org/entity/Q902;Netherlands;http://www.wikidata.org/entity/Q29999;;;;52.108644444;4.28935;;;;;;;;embassy;http://www.wikidata.org/entity/Q3917681;;http://www.wikidata.org/entity/Q83584256
Bangladesh;http://www.wikidata.org/entity/Q902;Kuwait;http://www.wikidata.org/entity/Q817;;;;29.252336111;48.091427777;;;;;;;;embassy;http://www.wikidata.org/entity/Q3917681;;http://www.wikidata.org/entity/Q83584146
Bangladesh;http://www.wikidata.org/entity/Q902;Lebanon;http://www.wikidata.org/entity/Q822;Beirut;http://www.wikidata.org/entity/Q3820;;33.899694444;35.488852777;+961-1-842-586;mailto:beirutmission@gmail.com;http://bangladeshembassybeirut.org/;;;;;embassy;http://www.wikidata.org/entity/Q3917681;;http://www.wikidata.org/entity/Q80115601
Bangladesh;http://www.wikidata.org/entity/Q902;Libya;http://www.wikidata.org/entity/Q1016;;;;32.838175;13.197080555;;;;;;;;embassy;http://www.wikidata.org/entity/Q3917681;;http://www.wikidata.org/entity/Q83584238
Bangladesh;http://www.wikidata.org/entity/Q902;Malaysia;http://www.wikidata.org/entity/Q833;;;;3.168994444;101.715080555;;;;;;;;high commission;http://www.wikidata.org/entity/Q18414273;;http://www.wikidata.org/entity/Q83584241
Bangladesh;http://www.wikidata.org/entity/Q902;Maldives;http://www.wikidata.org/entity/Q826;;;;4.172513888;73.512641666;;;;;;;;embassy;http://www.wikidata.org/entity/Q3917681;;http://www.wikidata.org/entity/Q83584242
Bangladesh;http://www.wikidata.org/entity/Q902;Maldives;http://www.wikidata.org/entity/Q826;Malé;http://www.wikidata.org/entity/Q9347;;;;;;;BangladeshMissionInMaldives;;;;high commission;http://www.wikidata.org/entity/Q18414273;;http://www.wikidata.org/entity/Q102106022
Bangladesh;http://www.wikidata.org/entity/Q902;Mauritius;http://www.wikidata.org/entity/Q1027;;;;-20.166191666;57.507155555;;;;;;;;high commission;http://www.wikidata.org/entity/Q18414273;;http://www.wikidata.org/entity/Q83584244
Bangladesh;http://www.wikidata.org/entity/Q902;Mexico;http://www.wikidata.org/entity/Q96;;;;19.424619444;-99.215319444;;;;;;;;embassy;http://www.wikidata.org/entity/Q3917681;;http://www.wikidata.org/entity/Q83584248
Bangladesh;http://www.wikidata.org/entity/Q902;Morocco;http://www.wikidata.org/entity/Q1028;;;;34.016136111;-6.821369444;;;;;;;;embassy;http://www.wikidata.org/entity/Q3917681;;http://www.wikidata.org/entity/Q83584249
Bangladesh;http://www.wikidata.org/entity/Q902;Myanmar;http://www.wikidata.org/entity/Q836;;;;16.807525;96.144258333;;;;;;;;embassy;http://www.wikidata.org/entity/Q3917681;;http://www.wikidata.org/entity/Q83584251
Bangladesh;http://www.wikidata.org/entity/Q902;Nepal;http://www.wikidata.org/entity/Q837;;;;27.741413888;85.331361111;;;;;;;;embassy;http://www.wikidata.org/entity/Q3917681;;http://www.wikidata.org/entity/Q83584255
Bangladesh;http://www.wikidata.org/entity/Q902;Netherlands;http://www.wikidata.org/entity/Q55;The Hague;http://www.wikidata.org/entity/Q36600;;52.1086;4.2892;;;http://bangladeshembassy.nl/;;;;;embassy;http://www.wikidata.org/entity/Q3917681;;http://www.wikidata.org/entity/Q100605116
Bangladesh;http://www.wikidata.org/entity/Q902;Oman;http://www.wikidata.org/entity/Q842;Muscat;http://www.wikidata.org/entity/Q3826;;23.611861111;58.451886111;;;;;;;;embassy;http://www.wikidata.org/entity/Q3917681;;http://www.wikidata.org/entity/Q83584258
Bangladesh;http://www.wikidata.org/entity/Q902;Pakistan;http://www.wikidata.org/entity/Q843;;;;33.736277777;73.075008333;;;;;;;;high commission;http://www.wikidata.org/entity/Q18414273;;http://www.wikidata.org/entity/Q83584260
Bangladesh;http://www.wikidata.org/entity/Q902;People's Republic of China;http://www.wikidata.org/entity/Q148;;;;39.911553805;116.431650083;;;;;;;;embassy;http://www.wikidata.org/entity/Q3917681;;http://www.wikidata.org/entity/Q83584122
Bangladesh;http://www.wikidata.org/entity/Q902;Philippines;http://www.wikidata.org/entity/Q928;;;;14.551877777;121.016933333;;;;;;;;embassy;http://www.wikidata.org/entity/Q3917681;;http://www.wikidata.org/entity/Q83584261
Bangladesh;http://www.wikidata.org/entity/Q902;Poland;http://www.wikidata.org/entity/Q36;Warsaw;http://www.wikidata.org/entity/Q270;;52.174625;21.077847;;;;;;;http://commons.wikimedia.org/wiki/Special:FilePath/Ambasada%20BANGLADESZU%2003.jpg;embassy;http://www.wikidata.org/entity/Q3917681;1972-01-01T00:00:00Z;http://www.wikidata.org/entity/Q24944139
