operator;operatorQID;jurisdictions;jurisdictionQIDs;country;countryQID;city;cityQID;address;latitude;longitude;phone;email;website;facebook;twitter;youtube;picture;pictureAuthor;pictureLicense;pictureLicenseURL;type;typeQID;creation;QID
Afghanistan;http://www.wikidata.org/entity/Q889;Austria;http://www.wikidata.org/entity/Q40;Austria;http://www.wikidata.org/entity/Q40;Vienna;http://www.wikidata.org/entity/Q1741;;48.2018;16.3738;;;http://www.afghanistan-vienna.org;;;;;;;;embassy;http://www.wikidata.org/entity/Q3917681;;http://www.wikidata.org/entity/Q104602592
Afghanistan;http://www.wikidata.org/entity/Q889;Belgium|Luxembourg;http://www.wikidata.org/entity/Q31|http://www.wikidata.org/entity/Q32;Belgium;http://www.wikidata.org/entity/Q31;Uccle - Ukkel;http://www.wikidata.org/entity/Q203312;;50.7985;4.3424;;;;;;;;;;;embassy;http://www.wikidata.org/entity/Q3917681;;http://www.wikidata.org/entity/Q68189173
Afghanistan;http://www.wikidata.org/entity/Q889;Canada;http://www.wikidata.org/entity/Q16;Canada;http://www.wikidata.org/entity/Q16;Ottawa;http://www.wikidata.org/entity/Q1930;;45.4112;-75.6913;+1-613-563-4223;;http://www.afghanemb-canada.net/;;;;http://commons.wikimedia.org/wiki/Special:FilePath/Afghan%20Embassy%20Ottawa.jpg;Matti Blume;CC BY-SA 4.0;https://creativecommons.org/licenses/by-sa/4.0;embassy;http://www.wikidata.org/entity/Q3917681;;http://www.wikidata.org/entity/Q13634268
Afghanistan;http://www.wikidata.org/entity/Q889;Egypt;http://www.wikidata.org/entity/Q79;Egypt;http://www.wikidata.org/entity/Q79;Heliopolis;http://www.wikidata.org/entity/Q2739389;;;;;;;;;;;;;;embassy;http://www.wikidata.org/entity/Q3917681;;http://www.wikidata.org/entity/Q5369532
Afghanistan;http://www.wikidata.org/entity/Q889;France;http://www.wikidata.org/entity/Q142;France;http://www.wikidata.org/entity/Q142;Paris;http://www.wikidata.org/entity/Q90;;48.857778;2.266611;;;http://www.ambafghanistan-fr.com;;;;http://commons.wikimedia.org/wiki/Special:FilePath/Paris%20ambassade%20afghanistan.jpg;Ralf.treinen;CC BY-SA 3.0;https://creativecommons.org/licenses/by-sa/3.0;embassy;http://www.wikidata.org/entity/Q3917681;;http://www.wikidata.org/entity/Q1854450
Afghanistan;http://www.wikidata.org/entity/Q889;Germany;http://www.wikidata.org/entity/Q183;Germany;http://www.wikidata.org/entity/Q183;Berlin;http://www.wikidata.org/entity/Q64;;52.4798;13.2784;;;http://botschaft-afghanistan.de;;;;http://commons.wikimedia.org/wiki/Special:FilePath/Taunusstra%C3%9Fe%203%20Berlin-Grunewald.jpg;Bodo Kubrak;CC0;http://creativecommons.org/publicdomain/zero/1.0/deed.en;embassy;http://www.wikidata.org/entity/Q3917681;;http://www.wikidata.org/entity/Q22344398
Afghanistan;http://www.wikidata.org/entity/Q889;India;http://www.wikidata.org/entity/Q668;India;http://www.wikidata.org/entity/Q668;Chanakyapuri;http://www.wikidata.org/entity/Q12426223;;28.59166667;77.18638889;;;http://newdelhi.mfa.af;;;;http://commons.wikimedia.org/wiki/Special:FilePath/Afghan%20embassy%20Delhi%201069.JPG;Krokodyl;CC BY-SA 3.0;https://creativecommons.org/licenses/by-sa/3.0;embassy;http://www.wikidata.org/entity/Q3917681;;http://www.wikidata.org/entity/Q1854458
Afghanistan;http://www.wikidata.org/entity/Q889;Italy;http://www.wikidata.org/entity/Q38;Italy;http://www.wikidata.org/entity/Q38;Rome;http://www.wikidata.org/entity/Q220;;41.9201;12.5177;;;;;;;;;;;embassy;http://www.wikidata.org/entity/Q3917681;;http://www.wikidata.org/entity/Q102865195
Afghanistan;http://www.wikidata.org/entity/Q889;Japan;http://www.wikidata.org/entity/Q17;Japan;http://www.wikidata.org/entity/Q17;Tokyo;http://www.wikidata.org/entity/Q1490;;35.657826;139.741864;;;;;;;;;;;embassy;http://www.wikidata.org/entity/Q3917681;;http://www.wikidata.org/entity/Q61924232
Afghanistan;http://www.wikidata.org/entity/Q889;;;Kazakhstan;http://www.wikidata.org/entity/Q232;Almaty;http://www.wikidata.org/entity/Q35493;;;;+7-7272-69-63-06;mailto:af.generalconsulate.almaty@gmail.com;;;;;;;;;consulate general;http://www.wikidata.org/entity/Q372690;;http://www.wikidata.org/entity/Q79841170
Afghanistan;http://www.wikidata.org/entity/Q889;Kyrgyzstan;http://www.wikidata.org/entity/Q813;Kyrgyzstan;http://www.wikidata.org/entity/Q813;Bishkek;http://www.wikidata.org/entity/Q9361;;;;;;;;;;;;;;embassy;http://www.wikidata.org/entity/Q3917681;;http://www.wikidata.org/entity/Q79834180
Afghanistan;http://www.wikidata.org/entity/Q889;Netherlands;http://www.wikidata.org/entity/Q55;Netherlands;http://www.wikidata.org/entity/Q55;The Hague;http://www.wikidata.org/entity/Q36600;;52.0836;4.3057;;;https://www.afghanistanembassy.nl/;;;;http://commons.wikimedia.org/wiki/Special:FilePath/Sign%20of%20the%20embassy%20of%20Afghanistan%20in%20the%20Hague%202016.jpg;Cookie Nguyen;CC BY-SA 4.0;https://creativecommons.org/licenses/by-sa/4.0;embassy;http://www.wikidata.org/entity/Q3917681;;http://www.wikidata.org/entity/Q100532332
Afghanistan;http://www.wikidata.org/entity/Q889;Norway;http://www.wikidata.org/entity/Q20;Norway;http://www.wikidata.org/entity/Q20;Oslo Municipality;http://www.wikidata.org/entity/Q5245991;;59.91615;10.6995;;;;;;;http://commons.wikimedia.org/wiki/Special:FilePath/Afghanistans%20ambassade.jpg;Vinguru;CC BY-SA 3.0;https://creativecommons.org/licenses/by-sa/3.0;embassy;http://www.wikidata.org/entity/Q3917681;;http://www.wikidata.org/entity/Q16031520
Afghanistan;http://www.wikidata.org/entity/Q889;Pakistan;http://www.wikidata.org/entity/Q843;Pakistan;http://www.wikidata.org/entity/Q843;Islamabad;http://www.wikidata.org/entity/Q1362;;33.725161111;73.089191666;;;;;;;;;;;embassy;http://www.wikidata.org/entity/Q3917681;;http://www.wikidata.org/entity/Q5369533
Afghanistan;http://www.wikidata.org/entity/Q889;;;Pakistan;http://www.wikidata.org/entity/Q843;Karachi;http://www.wikidata.org/entity/Q8660;;;;+92-21-35821264;;;;;;;;;;consulate;http://www.wikidata.org/entity/Q7843791;;http://www.wikidata.org/entity/Q27867659
Afghanistan;http://www.wikidata.org/entity/Q889;People's Republic of China;http://www.wikidata.org/entity/Q148;People's Republic of China;http://www.wikidata.org/entity/Q148;Beijing;http://www.wikidata.org/entity/Q956;;39.9392;116.4518;;;;;;;;;;;embassy;http://www.wikidata.org/entity/Q3917681;;http://www.wikidata.org/entity/Q100274393
Afghanistan;http://www.wikidata.org/entity/Q889;Poland;http://www.wikidata.org/entity/Q36;Poland;http://www.wikidata.org/entity/Q36;Warsaw;http://www.wikidata.org/entity/Q270;;52.1784;21.072;+48-22-885-54-10;;http://www.afghanembassy.com.pl;;;;http://commons.wikimedia.org/wiki/Special:FilePath/Waw%20afganistan12.jpg;Isee1;CC BY 2.5;https://creativecommons.org/licenses/by/2.5;embassy;http://www.wikidata.org/entity/Q3917681;1927-01-01T00:00:00Z;http://www.wikidata.org/entity/Q9149445
Afghanistan;http://www.wikidata.org/entity/Q889;Russia;http://www.wikidata.org/entity/Q159;Russia;http://www.wikidata.org/entity/Q159;Povarskaya Street;http://www.wikidata.org/entity/Q4366349;;55.7567;37.5892;;;;;;;http://commons.wikimedia.org/wiki/Special:FilePath/Povarskaya%2042%20Ponizovsky%20Building%20by%20Lev%20Kekyshev.jpg;NVO;CC BY-SA 2.5;https://creativecommons.org/licenses/by-sa/2.5;embassy;http://www.wikidata.org/entity/Q3917681;;http://www.wikidata.org/entity/Q86660050
Afghanistan;http://www.wikidata.org/entity/Q889;;;Saudi Arabia;http://www.wikidata.org/entity/Q851;Jeddah;http://www.wikidata.org/entity/Q374365;;21.569867;39.14838;;;;;;;;;;;consulate general;http://www.wikidata.org/entity/Q372690;;http://www.wikidata.org/entity/Q5164559
Afghanistan;http://www.wikidata.org/entity/Q889;Saudi Arabia;http://www.wikidata.org/entity/Q851;Saudi Arabia;http://www.wikidata.org/entity/Q851;Riyadh;http://www.wikidata.org/entity/Q3692;;24.6807;46.6233;;;;;;;;;;;embassy;http://www.wikidata.org/entity/Q3917681;;http://www.wikidata.org/entity/Q68169921
Afghanistan;http://www.wikidata.org/entity/Q889;Sweden;http://www.wikidata.org/entity/Q34;Sweden;http://www.wikidata.org/entity/Q34;Nacka Municipality;http://www.wikidata.org/entity/Q946647;;59.3012;18.2051;;;;;;;;;;;embassy;http://www.wikidata.org/entity/Q3917681;;http://www.wikidata.org/entity/Q60969153
Afghanistan;http://www.wikidata.org/entity/Q889;Switzerland;http://www.wikidata.org/entity/Q39;Switzerland;http://www.wikidata.org/entity/Q39;Geneva;http://www.wikidata.org/entity/Q71;;46.22;6.1439;;;https://www.geneva.mfa.af;;;;;;;;embassy;http://www.wikidata.org/entity/Q3917681;;http://www.wikidata.org/entity/Q101027507
Afghanistan;http://www.wikidata.org/entity/Q889;Ukraine;http://www.wikidata.org/entity/Q212;Ukraine;http://www.wikidata.org/entity/Q212;Kyiv;http://www.wikidata.org/entity/Q1899;;50.41876871;30.472897;+380-44-275-5893;mailto:afembkiev@yahoo.com;http://www.afghanembassy.com.ua/;;;;http://commons.wikimedia.org/wiki/Special:FilePath/Embassy%20of%20Afghanistan%20in%20Kyiv.jpg;Kholodovsky;Public domain;;embassy;http://www.wikidata.org/entity/Q3917681;;http://www.wikidata.org/entity/Q12142654
Afghanistan;http://www.wikidata.org/entity/Q889;United Kingdom;http://www.wikidata.org/entity/Q145;United Kingdom;http://www.wikidata.org/entity/Q145;London;http://www.wikidata.org/entity/Q84;;;;;;;;;;;;;;embassy;http://www.wikidata.org/entity/Q3917681;;http://www.wikidata.org/entity/Q93835633
Afghanistan;http://www.wikidata.org/entity/Q889;United States of America;http://www.wikidata.org/entity/Q30;United States of America;http://www.wikidata.org/entity/Q30;Washington, D.C.;http://www.wikidata.org/entity/Q61;;38.9172;-77.0522;;;https://www.afghanembassy.us;;Embassy_of_AFG;;http://commons.wikimedia.org/wiki/Special:FilePath/Embassy%20of%20Afghanistan.JPG;AgnosticPreachersKid;CC BY-SA 3.0;https://creativecommons.org/licenses/by-sa/3.0;embassy;http://www.wikidata.org/entity/Q3917681;;http://www.wikidata.org/entity/Q5369535
Albania;http://www.wikidata.org/entity/Q222;Austria;http://www.wikidata.org/entity/Q40;Austria;http://www.wikidata.org/entity/Q40;Vienna;http://www.wikidata.org/entity/Q1741;;48.1955;16.3763;;;http://www.ambasadat.gov.al/austria/;;;;http://commons.wikimedia.org/wiki/Special:FilePath/Embassy%20of%20the%20Republic%20of%20Albania%20Vienna.jpg;Erik.kueng;CC BY-SA 4.0;https://creativecommons.org/licenses/by-sa/4.0;embassy;http://www.wikidata.org/entity/Q3917681;;http://www.wikidata.org/entity/Q51711009
Albania;http://www.wikidata.org/entity/Q222;Belgium|Luxembourg;http://www.wikidata.org/entity/Q31|http://www.wikidata.org/entity/Q32;Belgium;http://www.wikidata.org/entity/Q31;Brussels;http://www.wikidata.org/entity/Q239;;50.8277;4.3628;;;;;;;;;;;embassy;http://www.wikidata.org/entity/Q3917681;;http://www.wikidata.org/entity/Q68190170
Albania;http://www.wikidata.org/entity/Q222;France|Monaco;http://www.wikidata.org/entity/Q142|http://www.wikidata.org/entity/Q235;France;http://www.wikidata.org/entity/Q142;Paris;http://www.wikidata.org/entity/Q90;;48.8699;2.29806;;;http://www.ambasadat.gov.al/france/fr;;;;http://commons.wikimedia.org/wiki/Special:FilePath/Ambassade%20d%27Albanie%20en%20France%2C%2057%20avenue%20Marceau%2C%20Paris%2016e.jpg;Celette;CC BY-SA 4.0;https://creativecommons.org/licenses/by-sa/4.0;embassy;http://www.wikidata.org/entity/Q3917681;;http://www.wikidata.org/entity/Q20669698
Albania;http://www.wikidata.org/entity/Q222;Germany;http://www.wikidata.org/entity/Q183;Germany;http://www.wikidata.org/entity/Q183;Berlin;http://www.wikidata.org/entity/Q64;;52.503;13.3909;;;http://www.ambasadat.gov.al/germany;;;;;;;;embassy;http://www.wikidata.org/entity/Q3917681;;http://www.wikidata.org/entity/Q73141849
Albania;http://www.wikidata.org/entity/Q222;Vatican City;http://www.wikidata.org/entity/Q237;Italy;http://www.wikidata.org/entity/Q38;Rome;http://www.wikidata.org/entity/Q220;;41.9074;12.4577;;;http://www.ambasadat.gov.al/vatican-city;;;;;;;;embassy;http://www.wikidata.org/entity/Q3917681;1993-01-01T00:00:00Z;http://www.wikidata.org/entity/Q56326894
Albania;http://www.wikidata.org/entity/Q222;Italy;http://www.wikidata.org/entity/Q38;Italy;http://www.wikidata.org/entity/Q38;Rome;http://www.wikidata.org/entity/Q220;;41.9253;12.5214;;;http://www.ambasadat.gov.al/italy/;;;;;;;;embassy;http://www.wikidata.org/entity/Q3917681;;http://www.wikidata.org/entity/Q102867257
Albania;http://www.wikidata.org/entity/Q222;Japan;http://www.wikidata.org/entity/Q17;Japan;http://www.wikidata.org/entity/Q17;Tokyo;http://www.wikidata.org/entity/Q1490;;35.664878;139.772618;;;;;;;http://commons.wikimedia.org/wiki/Special:FilePath/%E3%82%A2%E3%83%AB%E3%83%90%E3%83%8B%E3%82%A2%E5%A4%A7%E4%BD%BF%E9%A4%A8%E3%81%8C%E5%85%A5%E5%B1%85%E3%81%99%E3%82%8B%E3%83%93%E3%83%AB%E5%85%A8%E6%99%AF.jpg;Senkaku Islands;CC BY-SA 4.0;https://creativecommons.org/licenses/by-sa/4.0;embassy;http://www.wikidata.org/entity/Q3917681;;http://www.wikidata.org/entity/Q61877397
Albania;http://www.wikidata.org/entity/Q222;Netherlands;http://www.wikidata.org/entity/Q55;Netherlands;http://www.wikidata.org/entity/Q55;The Hague;http://www.wikidata.org/entity/Q36600;;52.086536111;4.298661111;;;http://www.ambasadat.gov.al/netherlands/en/;;;;http://commons.wikimedia.org/wiki/Special:FilePath/Ministria%20p%C3%ABr%20Europ%C3%ABn%20dhe%20Pun%C3%ABt%20e%20Jashtme.svg;Bes-ART;Public domain;;embassy;http://www.wikidata.org/entity/Q3917681;;http://www.wikidata.org/entity/Q5369538
Albania;http://www.wikidata.org/entity/Q222;;;Pakistan;http://www.wikidata.org/entity/Q843;Karachi;http://www.wikidata.org/entity/Q8660;;;;+92-21358869012;;;;;;;;;;consulate;http://www.wikidata.org/entity/Q7843791;;http://www.wikidata.org/entity/Q27867678
Albania;http://www.wikidata.org/entity/Q222;Poland;http://www.wikidata.org/entity/Q36;Poland;http://www.wikidata.org/entity/Q36;Warsaw;http://www.wikidata.org/entity/Q270;;52.201294444;20.961741666;+48-22-824-14-27;;http://ambasadat.gov.al/poland/en/;;;;http://commons.wikimedia.org/wiki/Special:FilePath/Ambasada%20Albanii%20w%20Warszawie.jpg;Darpaw;CC BY-SA 4.0;https://creativecommons.org/licenses/by-sa/4.0;embassy;http://www.wikidata.org/entity/Q3917681;1938-01-01T00:00:00Z;http://www.wikidata.org/entity/Q9149446
Albania;http://www.wikidata.org/entity/Q222;Russia;http://www.wikidata.org/entity/Q159;Russia;http://www.wikidata.org/entity/Q159;Moscow;http://www.wikidata.org/entity/Q649;;55.72758333;37.616;;;;;;;http://commons.wikimedia.org/wiki/Special:FilePath/Mytnaya%20Street%203.jpg;Amo4kin;Public domain;;embassy;http://www.wikidata.org/entity/Q3917681;;http://www.wikidata.org/entity/Q4373962
Albania;http://www.wikidata.org/entity/Q222;Saudi Arabia;http://www.wikidata.org/entity/Q851;Saudi Arabia;http://www.wikidata.org/entity/Q851;Riyadh;http://www.wikidata.org/entity/Q3692;;;;;;;;;;;;;;embassy;http://www.wikidata.org/entity/Q3917681;;http://www.wikidata.org/entity/Q68169922
Albania;http://www.wikidata.org/entity/Q222;Serbia;http://www.wikidata.org/entity/Q403;Serbia;http://www.wikidata.org/entity/Q403;Belgrade;http://www.wikidata.org/entity/Q3711;;44.776;20.457361111;;;http://www.ambasadat.gov.al/serbia/;;;;;;;;embassy;http://www.wikidata.org/entity/Q3917681;;http://www.wikidata.org/entity/Q67193149
Albania;http://www.wikidata.org/entity/Q222;Sweden;http://www.wikidata.org/entity/Q34;Sweden;http://www.wikidata.org/entity/Q34;Lidingö Municipality;http://www.wikidata.org/entity/Q3120654;;59.36083333;18.13611111;;;;;;;http://commons.wikimedia.org/wiki/Special:FilePath/Albaniens%20ambassad%20p%C3%A5%20Liding%C3%B6%202.jpg;Stefan4;CC BY-SA 3.0;https://creativecommons.org/licenses/by-sa/3.0;embassy;http://www.wikidata.org/entity/Q3917681;;http://www.wikidata.org/entity/Q10404284
Albania;http://www.wikidata.org/entity/Q222;Switzerland;http://www.wikidata.org/entity/Q39;Switzerland;http://www.wikidata.org/entity/Q39;Muri bei Bern;http://www.wikidata.org/entity/Q69765;;46.927941666;7.481172222;+41-31-952-60-10;mailto:embassy.bern@mfa.gov.al;;;AlEmbassyBern;;;;;;embassy;http://www.wikidata.org/entity/Q3917681;;http://www.wikidata.org/entity/Q26980073
Albania;http://www.wikidata.org/entity/Q222;Ireland|United Kingdom;http://www.wikidata.org/entity/Q27|http://www.wikidata.org/entity/Q145;United Kingdom;http://www.wikidata.org/entity/Q145;City of Westminster;http://www.wikidata.org/entity/Q179351;;51.4907;-0.144028;;;http://www.ambasadat.gov.al/united-kingdom/;;;;http://commons.wikimedia.org/wiki/Special:FilePath/Embassy%20of%20Albania%20in%20London%201.jpg;Sdrawkcab;CC BY-SA 3.0;https://creativecommons.org/licenses/by-sa/3.0;embassy;http://www.wikidata.org/entity/Q3917681;;http://www.wikidata.org/entity/Q13036975
Albania;http://www.wikidata.org/entity/Q222;United States of America;http://www.wikidata.org/entity/Q30;United States of America;http://www.wikidata.org/entity/Q30;Washington, D.C.;http://www.wikidata.org/entity/Q61;;38.9139;-77.047;;;http://www.ambasadat.gov.al/usa/;;;;http://commons.wikimedia.org/wiki/Special:FilePath/Embassy%20of%20Albania%2C%20Washington%2C%20D.C..jpg;AgnosticPreachersKid;CC BY-SA 3.0;https://creativecommons.org/licenses/by-sa/3.0;embassy;http://www.wikidata.org/entity/Q3917681;;http://www.wikidata.org/entity/Q5369539
Algeria;http://www.wikidata.org/entity/Q262;Angola;http://www.wikidata.org/entity/Q916;Angola;http://www.wikidata.org/entity/Q916;Luanda;http://www.wikidata.org/entity/Q3897;;;;;;;;;;;;;;embassy;http://www.wikidata.org/entity/Q3917681;;http://www.wikidata.org/entity/Q100268055
Algeria;http://www.wikidata.org/entity/Q262;Argentina;http://www.wikidata.org/entity/Q414;Argentina;http://www.wikidata.org/entity/Q414;Buenos Aires;http://www.wikidata.org/entity/Q1486;;-34.589;-58.3849;;;;;;;;;;;embassy;http://www.wikidata.org/entity/Q3917681;;http://www.wikidata.org/entity/Q100269328
Algeria;http://www.wikidata.org/entity/Q262;Australia;http://www.wikidata.org/entity/Q408;Australia;http://www.wikidata.org/entity/Q408;Canberra;http://www.wikidata.org/entity/Q3114;;-35.361;149.1064;;;;;;;;;;;embassy;http://www.wikidata.org/entity/Q3917681;;http://www.wikidata.org/entity/Q100269329
Algeria;http://www.wikidata.org/entity/Q262;Austria;http://www.wikidata.org/entity/Q40;Austria;http://www.wikidata.org/entity/Q40;Vienna;http://www.wikidata.org/entity/Q1741;;48.2444;16.3464;;;http://www.algerische-botschaft.at/;;;;;;;;embassy;http://www.wikidata.org/entity/Q3917681;;http://www.wikidata.org/entity/Q100151623
Algeria;http://www.wikidata.org/entity/Q262;Azerbaijan;http://www.wikidata.org/entity/Q227;Azerbaijan;http://www.wikidata.org/entity/Q227;Baku;http://www.wikidata.org/entity/Q9248;;40.3804;49.8873;;;;;;;;;;;embassy;http://www.wikidata.org/entity/Q3917681;;http://www.wikidata.org/entity/Q100269330
Algeria;http://www.wikidata.org/entity/Q262;Bahrain;http://www.wikidata.org/entity/Q398;Bahrain;http://www.wikidata.org/entity/Q398;Manama;http://www.wikidata.org/entity/Q3882;;26.2063;50.5819;;;;;;;;;;;embassy;http://www.wikidata.org/entity/Q3917681;;http://www.wikidata.org/entity/Q68170363
Algeria;http://www.wikidata.org/entity/Q262;Belgium|Luxembourg;http://www.wikidata.org/entity/Q31|http://www.wikidata.org/entity/Q32;Belgium;http://www.wikidata.org/entity/Q31;Ixelles - Elsene;http://www.wikidata.org/entity/Q208713;;50.8155;4.3517;;;http://algerian-embassy.be/;;;;;;;;embassy;http://www.wikidata.org/entity/Q3917681;;http://www.wikidata.org/entity/Q68190676
Algeria;http://www.wikidata.org/entity/Q262;Brazil;http://www.wikidata.org/entity/Q155;Brazil;http://www.wikidata.org/entity/Q155;Brasília;http://www.wikidata.org/entity/Q2844;;-15.8346;-47.8762;;;;;;;;;;;embassy;http://www.wikidata.org/entity/Q3917681;;http://www.wikidata.org/entity/Q100269331
Algeria;http://www.wikidata.org/entity/Q262;Bulgaria;http://www.wikidata.org/entity/Q219;Bulgaria;http://www.wikidata.org/entity/Q219;Sofia;http://www.wikidata.org/entity/Q472;;42.6926;23.3296;;;;;;;;;;;embassy;http://www.wikidata.org/entity/Q3917681;;http://www.wikidata.org/entity/Q100268056
Algeria;http://www.wikidata.org/entity/Q262;Burkina Faso;http://www.wikidata.org/entity/Q965;Burkina Faso;http://www.wikidata.org/entity/Q965;Ouagadougou;http://www.wikidata.org/entity/Q3777;;12.3843;-1.4933;;;http://www.ambalgbf.net;;;;;;;;embassy;http://www.wikidata.org/entity/Q3917681;;http://www.wikidata.org/entity/Q100268057
Algeria;http://www.wikidata.org/entity/Q262;Cameroon;http://www.wikidata.org/entity/Q1009;Cameroon;http://www.wikidata.org/entity/Q1009;Yaoundé;http://www.wikidata.org/entity/Q3808;;3.8994;11.5091;;;;;;;;;;;embassy;http://www.wikidata.org/entity/Q3917681;;http://www.wikidata.org/entity/Q100268059
Algeria;http://www.wikidata.org/entity/Q262;Canada;http://www.wikidata.org/entity/Q16;Canada;http://www.wikidata.org/entity/Q16;Ottawa;http://www.wikidata.org/entity/Q1930;;45.430323;-75.673307;;;http://www.ambalgott.com/;;;;http://commons.wikimedia.org/wiki/Special:FilePath/Algeria%2C%20Ottawa.JPG;SimonP;CC-BY-SA-3.0;http://creativecommons.org/licenses/by-sa/3.0/;embassy;http://www.wikidata.org/entity/Q3917681;;http://www.wikidata.org/entity/Q2841568
Algeria;http://www.wikidata.org/entity/Q262;Chad;http://www.wikidata.org/entity/Q657;Chad;http://www.wikidata.org/entity/Q657;N'Djamena;http://www.wikidata.org/entity/Q3659;;12.1197;15.042;;;;;;;;;;;embassy;http://www.wikidata.org/entity/Q3917681;;http://www.wikidata.org/entity/Q100268090
Algeria;http://www.wikidata.org/entity/Q262;Chile;http://www.wikidata.org/entity/Q298;Chile;http://www.wikidata.org/entity/Q298;Santiago;http://www.wikidata.org/entity/Q2887;;-33.4183;-70.5854;;;;;;;;;;;embassy;http://www.wikidata.org/entity/Q3917681;;http://www.wikidata.org/entity/Q100269332
Algeria;http://www.wikidata.org/entity/Q262;Colombia;http://www.wikidata.org/entity/Q739;Colombia;http://www.wikidata.org/entity/Q739;Bogota;http://www.wikidata.org/entity/Q2841;;4.675;-74.0476;;;;;;;;;;;embassy;http://www.wikidata.org/entity/Q3917681;;http://www.wikidata.org/entity/Q100269333
Algeria;http://www.wikidata.org/entity/Q262;Croatia;http://www.wikidata.org/entity/Q224;Croatia;http://www.wikidata.org/entity/Q224;Zagreb;http://www.wikidata.org/entity/Q1435;;45.8223;15.9894;;;http://www.ambalgzagreb.com/;;;;;;;;embassy;http://www.wikidata.org/entity/Q3917681;;http://www.wikidata.org/entity/Q100268064
Algeria;http://www.wikidata.org/entity/Q262;Cuba;http://www.wikidata.org/entity/Q241;Cuba;http://www.wikidata.org/entity/Q241;Havana;http://www.wikidata.org/entity/Q1563;;23.1191;-82.4256;;;;;;;;;;;embassy;http://www.wikidata.org/entity/Q3917681;;http://www.wikidata.org/entity/Q100269334
Algeria;http://www.wikidata.org/entity/Q262;Czech Republic;http://www.wikidata.org/entity/Q213;Czech Republic;http://www.wikidata.org/entity/Q213;Prague;http://www.wikidata.org/entity/Q1085;;50.1022;14.412;;;;;;;http://commons.wikimedia.org/wiki/Special:FilePath/Algerian%20embassy%20Prague%202337.JPG;Hynek Moravec;CC BY 2.5;https://creativecommons.org/licenses/by/2.5;embassy;http://www.wikidata.org/entity/Q3917681;;http://www.wikidata.org/entity/Q100268088
Algeria;http://www.wikidata.org/entity/Q262;Denmark;http://www.wikidata.org/entity/Q35;Danish Realm;http://www.wikidata.org/entity/Q756617;Gentofte Municipality;http://www.wikidata.org/entity/Q500076;;55.7342;12.5617;;;;;;;;;;;embassy;http://www.wikidata.org/entity/Q3917681;;http://www.wikidata.org/entity/Q100268065
Algeria;http://www.wikidata.org/entity/Q262;Democratic Republic of the Congo;http://www.wikidata.org/entity/Q974;Democratic Republic of the Congo;http://www.wikidata.org/entity/Q974;Kinshasa;http://www.wikidata.org/entity/Q3838;;;;;;;;;;;;;;embassy;http://www.wikidata.org/entity/Q3917681;;http://www.wikidata.org/entity/Q100268086
Algeria;http://www.wikidata.org/entity/Q262;Egypt;http://www.wikidata.org/entity/Q79;Egypt;http://www.wikidata.org/entity/Q79;Cairo;http://www.wikidata.org/entity/Q85;;30.0612;31.2226;;;;;;;http://commons.wikimedia.org/wiki/Special:FilePath/Ambassade%20de%20l%27algerie%20en%20Egypt%20sur%20le%20Nil.jpg;Hamlat naim;CC BY-SA 4.0;https://creativecommons.org/licenses/by-sa/4.0;embassy;http://www.wikidata.org/entity/Q3917681;;http://www.wikidata.org/entity/Q72757191
Algeria;http://www.wikidata.org/entity/Q262;Ethiopia;http://www.wikidata.org/entity/Q115;Ethiopia;http://www.wikidata.org/entity/Q115;Addis Ababa;http://www.wikidata.org/entity/Q3624;;8.9878;38.7248;;;;;;;;;;;embassy;http://www.wikidata.org/entity/Q3917681;;http://www.wikidata.org/entity/Q72247713
Algeria;http://www.wikidata.org/entity/Q262;Finland;http://www.wikidata.org/entity/Q33;Finland;http://www.wikidata.org/entity/Q33;Helsinki;http://www.wikidata.org/entity/Q1757;;60.1656;24.9502;;;https://www.algerianembassy.fi;;;;;;;;embassy;http://www.wikidata.org/entity/Q3917681;;http://www.wikidata.org/entity/Q100269335
Algeria;http://www.wikidata.org/entity/Q262;;;France;http://www.wikidata.org/entity/Q142;;;;48.8488;2.39839;;;http://www.consulatalgerie-paris.org;;;;;;;;consulate general;http://www.wikidata.org/entity/Q372690;;http://www.wikidata.org/entity/Q16507562
Algeria;http://www.wikidata.org/entity/Q262;;;France;http://www.wikidata.org/entity/Q142;6th arrondissement of Lyon;http://www.wikidata.org/entity/Q3358;;45.765858;4.854692;;;http://www.consulatalgerie-lyon.org;;;;http://commons.wikimedia.org/wiki/Special:FilePath/Rue%20Vauban%20%28Lyon%29%20-%20Mars%202019%20-%20consulat%20d%27Alg%C3%A9rie.jpg;Benoît Prieur;CC BY-SA 4.0;https://creativecommons.org/licenses/by-sa/4.0;consulate general;http://www.wikidata.org/entity/Q372690;;http://www.wikidata.org/entity/Q16507561
Algeria;http://www.wikidata.org/entity/Q262;;;France;http://www.wikidata.org/entity/Q142;Lille;http://www.wikidata.org/entity/Q648;;50.6323;3.05278;;;http://www.consulatalgerielille.org;;;;;;;;consulate general;http://www.wikidata.org/entity/Q372690;;http://www.wikidata.org/entity/Q16010659
Algeria;http://www.wikidata.org/entity/Q262;;;France;http://www.wikidata.org/entity/Q142;Marseille;http://www.wikidata.org/entity/Q23482;;43.2774;5.38366;;;;;;;;;;;consulate general;http://www.wikidata.org/entity/Q372690;;http://www.wikidata.org/entity/Q16010660
Algeria;http://www.wikidata.org/entity/Q262;;;France;http://www.wikidata.org/entity/Q142;Metz;http://www.wikidata.org/entity/Q22690;;49.110087;6.170309;;;http://www.consulat-metz-algerie.fr/;;;;http://commons.wikimedia.org/wiki/Special:FilePath/Conalfrme.png;consulat d'Algérie à Metz;CC BY-SA 4.0;https://creativecommons.org/licenses/by-sa/4.0;consulate;http://www.wikidata.org/entity/Q7843791;;http://www.wikidata.org/entity/Q26257932
Algeria;http://www.wikidata.org/entity/Q262;France|Andorra|Monaco;http://www.wikidata.org/entity/Q142|http://www.wikidata.org/entity/Q228|http://www.wikidata.org/entity/Q235;France;http://www.wikidata.org/entity/Q142;Paris;http://www.wikidata.org/entity/Q90;;48.877583;2.309722;;;http://www.amb-algerie.fr;;;;http://commons.wikimedia.org/wiki/Special:FilePath/Algerian%20embassy%20in%20France.jpg;Pymouss44;CC BY-SA 3.0;https://creativecommons.org/licenses/by-sa/3.0;embassy;http://www.wikidata.org/entity/Q3917681;;http://www.wikidata.org/entity/Q2841572
Algeria;http://www.wikidata.org/entity/Q262;;;France;http://www.wikidata.org/entity/Q142;Strasbourg;http://www.wikidata.org/entity/Q6602;;48.5721;7.71459;;;https://consulat-strasbourg-algerie.fr/;;;;;;;;consulate general;http://www.wikidata.org/entity/Q372690;;http://www.wikidata.org/entity/Q16010254
Algeria;http://www.wikidata.org/entity/Q262;Gabon;http://www.wikidata.org/entity/Q1000;Gabon;http://www.wikidata.org/entity/Q1000;Libreville;http://www.wikidata.org/entity/Q3825;;0.4409;9.4163;;;;;;;;;;;embassy;http://www.wikidata.org/entity/Q3917681;;http://www.wikidata.org/entity/Q100268069
Algeria;http://www.wikidata.org/entity/Q262;Germany;http://www.wikidata.org/entity/Q183;Germany;http://www.wikidata.org/entity/Q183;Berlin;http://www.wikidata.org/entity/Q64;;52.5667;13.3996;;;http://www.algerische-botschaft.de;;;;http://commons.wikimedia.org/wiki/Special:FilePath/Be%20Embassy%20of%20Algeria%2002.jpg;Achim Raschka;CC-BY-SA-3.0;http://creativecommons.org/licenses/by-sa/3.0/;embassy;http://www.wikidata.org/entity/Q3917681;;http://www.wikidata.org/entity/Q2841578
Algeria;http://www.wikidata.org/entity/Q262;Ghana;http://www.wikidata.org/entity/Q117;Ghana;http://www.wikidata.org/entity/Q117;Accra;http://www.wikidata.org/entity/Q3761;;5.5789;-0.1809;;;;;;;;;;;embassy;http://www.wikidata.org/entity/Q3917681;;http://www.wikidata.org/entity/Q100268070
Algeria;http://www.wikidata.org/entity/Q262;Greece;http://www.wikidata.org/entity/Q41;Greece;http://www.wikidata.org/entity/Q41;Athens;http://www.wikidata.org/entity/Q1524;;37.9708;23.7417;;;;;;;;;;;embassy;http://www.wikidata.org/entity/Q3917681;;http://www.wikidata.org/entity/Q100268072
Algeria;http://www.wikidata.org/entity/Q262;Guinea|Liberia|Sierra Leone;http://www.wikidata.org/entity/Q1006|http://www.wikidata.org/entity/Q1014|http://www.wikidata.org/entity/Q1044;Guinea;http://www.wikidata.org/entity/Q1006;Conakry;http://www.wikidata.org/entity/Q3733;;9.5056;-13.7158;;;http://www.ambassadealgerieconakry.info/;;;;;;;;embassy;http://www.wikidata.org/entity/Q3917681;;http://www.wikidata.org/entity/Q99373482
Algeria;http://www.wikidata.org/entity/Q262;Hungary;http://www.wikidata.org/entity/Q28;Hungary;http://www.wikidata.org/entity/Q28;Budapest;http://www.wikidata.org/entity/Q1781;;47.5176;18.9881;;;https://www.ambalgbudapest.org/;;;;http://commons.wikimedia.org/wiki/Special:FilePath/Class%20villa%20bp.JPG;Texaner;CC BY-SA 3.0;https://creativecommons.org/licenses/by-sa/3.0;embassy;http://www.wikidata.org/entity/Q3917681;;http://www.wikidata.org/entity/Q100268073
Algeria;http://www.wikidata.org/entity/Q262;India;http://www.wikidata.org/entity/Q668;India;http://www.wikidata.org/entity/Q668;New Delhi;http://www.wikidata.org/entity/Q987;;28.578;77.1728;;;;;;;;;;;embassy;http://www.wikidata.org/entity/Q3917681;;http://www.wikidata.org/entity/Q100269162
Algeria;http://www.wikidata.org/entity/Q262;Indonesia;http://www.wikidata.org/entity/Q252;Indonesia;http://www.wikidata.org/entity/Q252;Jakarta;http://www.wikidata.org/entity/Q3630;;-6.23;106.8337;;;;;;;;;;;embassy;http://www.wikidata.org/entity/Q3917681;;http://www.wikidata.org/entity/Q100269337
Algeria;http://www.wikidata.org/entity/Q262;Iran;http://www.wikidata.org/entity/Q794;Iran;http://www.wikidata.org/entity/Q794;Tehran;http://www.wikidata.org/entity/Q3616;;35.8071;51.3996;;;;;;;;;;;embassy;http://www.wikidata.org/entity/Q3917681;;http://www.wikidata.org/entity/Q100269338
Algeria;http://www.wikidata.org/entity/Q262;Iraq;http://www.wikidata.org/entity/Q796;Iraq;http://www.wikidata.org/entity/Q796;Baghdad;http://www.wikidata.org/entity/Q1530;;;;;;;;;;;;;;embassy;http://www.wikidata.org/entity/Q3917681;;http://www.wikidata.org/entity/Q72253450
Algeria;http://www.wikidata.org/entity/Q262;Ireland;http://www.wikidata.org/entity/Q27;Ireland;http://www.wikidata.org/entity/Q27;Dublin;http://www.wikidata.org/entity/Q1761;;53.3203;-6.2679;;;;;;;;;;;embassy;http://www.wikidata.org/entity/Q3917681;;http://www.wikidata.org/entity/Q104761687
Algeria;http://www.wikidata.org/entity/Q262;Italy;http://www.wikidata.org/entity/Q38;Italy;http://www.wikidata.org/entity/Q38;Rome;http://www.wikidata.org/entity/Q220;;41.9125;12.5096;;;http://www.algerianembassy.it;;;;;;;;embassy;http://www.wikidata.org/entity/Q3917681;;http://www.wikidata.org/entity/Q72256120
Algeria;http://www.wikidata.org/entity/Q262;Ivory Coast;http://www.wikidata.org/entity/Q1008;Ivory Coast;http://www.wikidata.org/entity/Q1008;Abidjan;http://www.wikidata.org/entity/Q1515;;5.3307;-4.0208;;;;;;;;;;;embassy;http://www.wikidata.org/entity/Q3917681;;http://www.wikidata.org/entity/Q100268063
Algeria;http://www.wikidata.org/entity/Q262;Jamaica;http://www.wikidata.org/entity/Q766;Jamaica;http://www.wikidata.org/entity/Q766;Kingston;http://www.wikidata.org/entity/Q34692;;18.0274;-76.7559;;;;;;;;;;;embassy;http://www.wikidata.org/entity/Q3917681;;http://www.wikidata.org/entity/Q100269339
Algeria;http://www.wikidata.org/entity/Q262;Japan;http://www.wikidata.org/entity/Q17;Japan;http://www.wikidata.org/entity/Q17;Meguro-ku;http://www.wikidata.org/entity/Q233903;;35.639119444;139.710163888;;;https://algerianembassy-japan.jp/en/;;;;http://commons.wikimedia.org/wiki/Special:FilePath/%E3%82%A2%E3%83%AB%E3%82%B8%E3%82%A7%E3%83%AA%E3%82%A2%E5%A4%A7%E4%BD%BF%E5%85%AC%E9%82%B8.jpg;Senkaku Islands;CC BY-SA 4.0;https://creativecommons.org/licenses/by-sa/4.0;embassy;http://www.wikidata.org/entity/Q3917681;;http://www.wikidata.org/entity/Q30403250
Algeria;http://www.wikidata.org/entity/Q262;Jordan;http://www.wikidata.org/entity/Q810;Jordan;http://www.wikidata.org/entity/Q810;Amman;http://www.wikidata.org/entity/Q3805;;31.9552;35.9124;;;;;;;;;;;embassy;http://www.wikidata.org/entity/Q3917681;;http://www.wikidata.org/entity/Q100269340
Algeria;http://www.wikidata.org/entity/Q262;Kenya;http://www.wikidata.org/entity/Q114;Kenya;http://www.wikidata.org/entity/Q114;Nairobi;http://www.wikidata.org/entity/Q3870;;-1.2529;36.8292;;;;;;;;;;;embassy;http://www.wikidata.org/entity/Q3917681;;http://www.wikidata.org/entity/Q100268074
Algeria;http://www.wikidata.org/entity/Q262;Kuwait;http://www.wikidata.org/entity/Q817;Kuwait;http://www.wikidata.org/entity/Q817;Kuwait City;http://www.wikidata.org/entity/Q35178;;29.3665;48.0145;;;;;;;;;;;embassy;http://www.wikidata.org/entity/Q3917681;;http://www.wikidata.org/entity/Q100269341
Algeria;http://www.wikidata.org/entity/Q262;Lebanon;http://www.wikidata.org/entity/Q822;Lebanon;http://www.wikidata.org/entity/Q822;Beirut;http://www.wikidata.org/entity/Q3820;;33.8669;35.4835;;;;;;;;;;;embassy;http://www.wikidata.org/entity/Q3917681;;http://www.wikidata.org/entity/Q100269342
Algeria;http://www.wikidata.org/entity/Q262;Libya;http://www.wikidata.org/entity/Q1016;Libya;http://www.wikidata.org/entity/Q1016;Tripoli;http://www.wikidata.org/entity/Q3579;;32.8921;13.1879;;;;;;;;;;;embassy;http://www.wikidata.org/entity/Q3917681;;http://www.wikidata.org/entity/Q100268075
Algeria;http://www.wikidata.org/entity/Q262;Madagascar;http://www.wikidata.org/entity/Q1019;Madagascar;http://www.wikidata.org/entity/Q1019;Antananarivo;http://www.wikidata.org/entity/Q3915;;-18.9007;47.5221;;;;;;;;;;;embassy;http://www.wikidata.org/entity/Q3917681;;http://www.wikidata.org/entity/Q100268077
Algeria;http://www.wikidata.org/entity/Q262;Malaysia;http://www.wikidata.org/entity/Q833;Malaysia;http://www.wikidata.org/entity/Q833;Kuala Lumpur;http://www.wikidata.org/entity/Q1865;;3.1638;101.7296;;;;;;;;;;;embassy;http://www.wikidata.org/entity/Q3917681;;http://www.wikidata.org/entity/Q100269343
Algeria;http://www.wikidata.org/entity/Q262;Mali;http://www.wikidata.org/entity/Q912;Mali;http://www.wikidata.org/entity/Q912;Bamako;http://www.wikidata.org/entity/Q3703;;12.6089;-7.9768;;;;;;;;;;;embassy;http://www.wikidata.org/entity/Q3917681;;http://www.wikidata.org/entity/Q100268078
Algeria;http://www.wikidata.org/entity/Q262;Mauritania;http://www.wikidata.org/entity/Q1025;Mauritania;http://www.wikidata.org/entity/Q1025;Nouakchott;http://www.wikidata.org/entity/Q3688;;18.0981;-15.9743;;;;;;;;;;;embassy;http://www.wikidata.org/entity/Q3917681;;http://www.wikidata.org/entity/Q100268079
Algeria;http://www.wikidata.org/entity/Q262;Mexico;http://www.wikidata.org/entity/Q96;Mexico;http://www.wikidata.org/entity/Q96;Mexico City;http://www.wikidata.org/entity/Q1489;;19.4225;-99.2135;;;;;;;;;;;embassy;http://www.wikidata.org/entity/Q3917681;;http://www.wikidata.org/entity/Q100269344
Algeria;http://www.wikidata.org/entity/Q262;Morocco;http://www.wikidata.org/entity/Q1028;Morocco;http://www.wikidata.org/entity/Q1028;Rabat;http://www.wikidata.org/entity/Q3551;;33.968136;-6.827782;;;https://www.ambalg.ma;;;;;;;;embassy;http://www.wikidata.org/entity/Q3917681;;http://www.wikidata.org/entity/Q2841567
Algeria;http://www.wikidata.org/entity/Q262;Mozambique;http://www.wikidata.org/entity/Q1029;Mozambique;http://www.wikidata.org/entity/Q1029;Maputo;http://www.wikidata.org/entity/Q3889;;-25.9709;32.5939;;;;;;;;;;;embassy;http://www.wikidata.org/entity/Q3917681;;http://www.wikidata.org/entity/Q100268080
Algeria;http://www.wikidata.org/entity/Q262;Namibia;http://www.wikidata.org/entity/Q1030;Namibia;http://www.wikidata.org/entity/Q1030;Windhoek;http://www.wikidata.org/entity/Q3935;;-22.5644;17.1135;;;;;;;http://commons.wikimedia.org/wiki/Special:FilePath/Ambassade%20d%E2%80%99Alg%C3%A9rie%20a%20Windhoek.webp;Ahmdz16;CC BY-SA 4.0;https://creativecommons.org/licenses/by-sa/4.0;embassy;http://www.wikidata.org/entity/Q3917681;;http://www.wikidata.org/entity/Q100268081
Algeria;http://www.wikidata.org/entity/Q262;Netherlands;http://www.wikidata.org/entity/Q55;Netherlands;http://www.wikidata.org/entity/Q55;The Hague;http://www.wikidata.org/entity/Q36600;;52.1004;4.2827;;;;;;;;;;;embassy;http://www.wikidata.org/entity/Q3917681;;http://www.wikidata.org/entity/Q100268085
Algeria;http://www.wikidata.org/entity/Q262;Niger;http://www.wikidata.org/entity/Q1032;Niger;http://www.wikidata.org/entity/Q1032;Niamey;http://www.wikidata.org/entity/Q3674;;13.525;2.0714;;;;;;;;;;;embassy;http://www.wikidata.org/entity/Q3917681;;http://www.wikidata.org/entity/Q100268082
Algeria;http://www.wikidata.org/entity/Q262;Nigeria;http://www.wikidata.org/entity/Q1033;Nigeria;http://www.wikidata.org/entity/Q1033;Abuja;http://www.wikidata.org/entity/Q3787;;9.0365;7.5232;;;;;;;;;;;embassy;http://www.wikidata.org/entity/Q3917681;;http://www.wikidata.org/entity/Q100268083
Algeria;http://www.wikidata.org/entity/Q262;Norway;http://www.wikidata.org/entity/Q20;Norway;http://www.wikidata.org/entity/Q20;Oslo Municipality;http://www.wikidata.org/entity/Q5245991;;59.919527777;10.691388888;;;https://algerianembassy.no/;;;;http://commons.wikimedia.org/wiki/Special:FilePath/Sigurd%20Syrs%20gt%202-4%20II.jpg;Vinguru;CC BY-SA 4.0;https://creativecommons.org/licenses/by-sa/4.0;embassy;http://www.wikidata.org/entity/Q3917681;;http://www.wikidata.org/entity/Q17748401
Algeria;http://www.wikidata.org/entity/Q262;Oman;http://www.wikidata.org/entity/Q842;Oman;http://www.wikidata.org/entity/Q842;Muscat;http://www.wikidata.org/entity/Q3826;;23.603;58.4289;;;;;;;;;;;embassy;http://www.wikidata.org/entity/Q3917681;;http://www.wikidata.org/entity/Q100269345
Algeria;http://www.wikidata.org/entity/Q262;Pakistan;http://www.wikidata.org/entity/Q843;Pakistan;http://www.wikidata.org/entity/Q843;Islamabad;http://www.wikidata.org/entity/Q1362;;33.728387;73.046287;;;;;;;;;;;embassy;http://www.wikidata.org/entity/Q3917681;;http://www.wikidata.org/entity/Q30592878
Algeria;http://www.wikidata.org/entity/Q262;People's Republic of China;http://www.wikidata.org/entity/Q148;People's Republic of China;http://www.wikidata.org/entity/Q148;Beijing;http://www.wikidata.org/entity/Q956;;;;;;;;;;;;;;embassy;http://www.wikidata.org/entity/Q3917681;;http://www.wikidata.org/entity/Q100268060
Algeria;http://www.wikidata.org/entity/Q262;Peru;http://www.wikidata.org/entity/Q419;Peru;http://www.wikidata.org/entity/Q419;Lima;http://www.wikidata.org/entity/Q2868;;-12.0985;-77.042;;;;;;;;;;;embassy;http://www.wikidata.org/entity/Q3917681;;http://www.wikidata.org/entity/Q100269347
Algeria;http://www.wikidata.org/entity/Q262;Poland;http://www.wikidata.org/entity/Q36;Poland;http://www.wikidata.org/entity/Q36;Warsaw;http://www.wikidata.org/entity/Q270;;52.191033333;21.021711111;+48-22-617-58-55;;http://www.algerianembassy.pl;;;;http://commons.wikimedia.org/wiki/Special:FilePath/AMBASADA%20ALGIERII%2002.jpg;Andrzej Błaszczak;CC BY-SA 4.0;https://creativecommons.org/licenses/by-sa/4.0;embassy;http://www.wikidata.org/entity/Q3917681;1962-01-01T00:00:00Z;http://www.wikidata.org/entity/Q9149450
Algeria;http://www.wikidata.org/entity/Q262;Portugal;http://www.wikidata.org/entity/Q45;Portugal;http://www.wikidata.org/entity/Q45;Lisbon;http://www.wikidata.org/entity/Q597;;38.7;-9.2159;;;;;;;http://commons.wikimedia.org/wiki/Special:FilePath/Embaixada%20da%20Arg%C3%A9lia%20em%20Lisboa%2002.jpg;Joehawkins;CC BY-SA 4.0;https://creativecommons.org/licenses/by-sa/4.0;embassy;http://www.wikidata.org/entity/Q3917681;;http://www.wikidata.org/entity/Q100146805
Algeria;http://www.wikidata.org/entity/Q262;Qatar;http://www.wikidata.org/entity/Q846;Qatar;http://www.wikidata.org/entity/Q846;Doha;http://www.wikidata.org/entity/Q3861;;25.3418;51.5183;;;;;;;;;;;embassy;http://www.wikidata.org/entity/Q3917681;;http://www.wikidata.org/entity/Q72252232
Algeria;http://www.wikidata.org/entity/Q262;Republic of the Congo;http://www.wikidata.org/entity/Q971;Republic of the Congo;http://www.wikidata.org/entity/Q971;Brazzaville;http://www.wikidata.org/entity/Q3844;;;;;;;;;;;;;;embassy;http://www.wikidata.org/entity/Q3917681;;http://www.wikidata.org/entity/Q100268087
Algeria;http://www.wikidata.org/entity/Q262;Romania;http://www.wikidata.org/entity/Q218;Romania;http://www.wikidata.org/entity/Q218;Bucharest;http://www.wikidata.org/entity/Q19660;;44.4426;26.09;;;;;;;http://commons.wikimedia.org/wiki/Special:FilePath/AmbasadaAlgeriei.JPG;Țetcu Mircea Rareș;CC BY-SA 3.0 ro;https://creativecommons.org/licenses/by-sa/3.0/ro/deed.en;embassy;http://www.wikidata.org/entity/Q3917681;;http://www.wikidata.org/entity/Q100146802
Algeria;http://www.wikidata.org/entity/Q262;Russia;http://www.wikidata.org/entity/Q159;Russia;http://www.wikidata.org/entity/Q159;Moscow;http://www.wikidata.org/entity/Q649;;55.766667;37.6;;;http://www.algerianembassy.ru;;;;http://commons.wikimedia.org/wiki/Special:FilePath/Ambassade%20d%27Alg%C3%A9rie%20%C3%A0%20Mosco.JPG;Latno;CC BY-SA 3.0;https://creativecommons.org/licenses/by-sa/3.0;embassy;http://www.wikidata.org/entity/Q3917681;;http://www.wikidata.org/entity/Q2841581
Algeria;http://www.wikidata.org/entity/Q262;Saudi Arabia;http://www.wikidata.org/entity/Q851;Saudi Arabia;http://www.wikidata.org/entity/Q851;Riyadh;http://www.wikidata.org/entity/Q3692;;24.6775;46.62;;;;;;;;;;;embassy;http://www.wikidata.org/entity/Q3917681;;http://www.wikidata.org/entity/Q68169924
Algeria;http://www.wikidata.org/entity/Q262;Senegal;http://www.wikidata.org/entity/Q1041;Senegal;http://www.wikidata.org/entity/Q1041;Dakar;http://www.wikidata.org/entity/Q3718;;14.6608;-17.4374;;;;;;;;;;;embassy;http://www.wikidata.org/entity/Q3917681;;http://www.wikidata.org/entity/Q100269348
Algeria;http://www.wikidata.org/entity/Q262;Montenegro|Serbia;http://www.wikidata.org/entity/Q236|http://www.wikidata.org/entity/Q403;Serbia;http://www.wikidata.org/entity/Q403;Belgrade;http://www.wikidata.org/entity/Q3711;;44.7865;20.4606;;;https://www.ambalgserbia.rs/;;;;;;;;embassy;http://www.wikidata.org/entity/Q3917681;;http://www.wikidata.org/entity/Q100268089
Algeria;http://www.wikidata.org/entity/Q262;South Africa;http://www.wikidata.org/entity/Q258;South Africa;http://www.wikidata.org/entity/Q258;Pretoria;http://www.wikidata.org/entity/Q3926;;-25.748031;28.226922;;;;;;;http://commons.wikimedia.org/wiki/Special:FilePath/Algerian%20Embassy%20in%20Pretoria.JPG;Kransky;CC BY 3.0;https://creativecommons.org/licenses/by/3.0;embassy;http://www.wikidata.org/entity/Q3917681;;http://www.wikidata.org/entity/Q86058115
Algeria;http://www.wikidata.org/entity/Q262;South Korea;http://www.wikidata.org/entity/Q884;South Korea;http://www.wikidata.org/entity/Q884;Yongsan District;http://www.wikidata.org/entity/Q50429;;37.540888888;126.995277777;;;http://www.algerianemb.or.kr/;;;;;;;;embassy;http://www.wikidata.org/entity/Q3917681;;http://www.wikidata.org/entity/Q12617463
Algeria;http://www.wikidata.org/entity/Q262;Spain;http://www.wikidata.org/entity/Q29;Spain;http://www.wikidata.org/entity/Q29;Madrid;http://www.wikidata.org/entity/Q2807;;40.4362;-3.6859;;;;;;;;;;;embassy;http://www.wikidata.org/entity/Q3917681;;http://www.wikidata.org/entity/Q100268067
Algeria;http://www.wikidata.org/entity/Q262;Sudan;http://www.wikidata.org/entity/Q1049;Sudan;http://www.wikidata.org/entity/Q1049;Khartoum;http://www.wikidata.org/entity/Q1963;;;;;;;;;;;;;;embassy;http://www.wikidata.org/entity/Q3917681;;http://www.wikidata.org/entity/Q100269350
Algeria;http://www.wikidata.org/entity/Q262;Sweden;http://www.wikidata.org/entity/Q34;Sweden;http://www.wikidata.org/entity/Q34;Stockholm;http://www.wikidata.org/entity/Q1754;;59.34263889;18.06944444;;;;;;;http://commons.wikimedia.org/wiki/Special:FilePath/N%C3%A4ktergalen39.jpg;Ankara;CC BY-SA 3.0;https://creativecommons.org/licenses/by-sa/3.0;embassy;http://www.wikidata.org/entity/Q3917681;;http://www.wikidata.org/entity/Q10405148
Algeria;http://www.wikidata.org/entity/Q262;Switzerland;http://www.wikidata.org/entity/Q39;Switzerland;http://www.wikidata.org/entity/Q39;Bern;http://www.wikidata.org/entity/Q70;;46.9349916;7.4630476;+41-31-350-10-50;mailto:ambalg.berne@bluewin.ch;https://ambassade-algerie.ch/;;;;http://commons.wikimedia.org/wiki/Special:FilePath/Bern%20Elfenstrasse%204%20Embassy%20of%20Algeria%20in%20Switzerland%20Residence%20DSC01336.jpg;Beat Estermann;CC BY-SA 3.0;https://creativecommons.org/licenses/by-sa/3.0;embassy;http://www.wikidata.org/entity/Q3917681;;http://www.wikidata.org/entity/Q26979962
Algeria;http://www.wikidata.org/entity/Q262;Syria;http://www.wikidata.org/entity/Q858;Syria;http://www.wikidata.org/entity/Q858;Damascus;http://www.wikidata.org/entity/Q3766;;;;;;;;;;;;;;embassy;http://www.wikidata.org/entity/Q3917681;;http://www.wikidata.org/entity/Q100269351
Algeria;http://www.wikidata.org/entity/Q262;Tanzania;http://www.wikidata.org/entity/Q924;Tanzania;http://www.wikidata.org/entity/Q924;Dar es Salaam;http://www.wikidata.org/entity/Q1960;;-6.8017;39.2852;;;;;;;;;;;embassy;http://www.wikidata.org/entity/Q3917681;;http://www.wikidata.org/entity/Q100269352
Algeria;http://www.wikidata.org/entity/Q262;Tunisia;http://www.wikidata.org/entity/Q948;Tunisia;http://www.wikidata.org/entity/Q948;Tunis Governorate;http://www.wikidata.org/entity/Q328109;;36.81;10.18;;;http://www.ambdz.tn/;;;;http://commons.wikimedia.org/wiki/Special:FilePath/Ambassade%20d%27Alg%C3%A9rie%20%C3%A0%20Tunis.jpg;T A;CC BY-SA 2.0;https://creativecommons.org/licenses/by-sa/2.0;embassy;http://www.wikidata.org/entity/Q3917681;;http://www.wikidata.org/entity/Q2841582
Algeria;http://www.wikidata.org/entity/Q262;Turkey;http://www.wikidata.org/entity/Q43;Turkey;http://www.wikidata.org/entity/Q43;Ankara;http://www.wikidata.org/entity/Q3640;;39.8909;32.8589;;;;;;;;;;;embassy;http://www.wikidata.org/entity/Q3917681;;http://www.wikidata.org/entity/Q72249980
Algeria;http://www.wikidata.org/entity/Q262;Uganda;http://www.wikidata.org/entity/Q1036;Uganda;http://www.wikidata.org/entity/Q1036;Kampala;http://www.wikidata.org/entity/Q3894;;0.3341;32.588;;;;;;;;;;;embassy;http://www.wikidata.org/entity/Q3917681;;http://www.wikidata.org/entity/Q100268084
Algeria;http://www.wikidata.org/entity/Q262;Ukraine;http://www.wikidata.org/entity/Q212;Ukraine;http://www.wikidata.org/entity/Q212;Kyiv;http://www.wikidata.org/entity/Q1899;;50.4040955;30.55612896;+380-44-286-7688;mailto:ambalgukraine@gmail.com;http://www.algerianembassy.com.ua/;;;;http://commons.wikimedia.org/wiki/Special:FilePath/Embassy%20of%20Algeria%20in%20Kyiv.jpeg;Kholodovsky;Public domain;;embassy;http://www.wikidata.org/entity/Q3917681;1993-01-01T00:00:00Z;http://www.wikidata.org/entity/Q154663
Algeria;http://www.wikidata.org/entity/Q262;United Arab Emirates;http://www.wikidata.org/entity/Q878;United Arab Emirates;http://www.wikidata.org/entity/Q878;Abu Dhabi;http://www.wikidata.org/entity/Q1519;;24.4887;54.3691;;;http://www.embassy-algeria-uae.com/;;;;;;;;embassy;http://www.wikidata.org/entity/Q3917681;;http://www.wikidata.org/entity/Q72846414
Algeria;http://www.wikidata.org/entity/Q262;United Kingdom;http://www.wikidata.org/entity/Q145;United Kingdom;http://www.wikidata.org/entity/Q145;London;http://www.wikidata.org/entity/Q84;;51.518274;-0.142603;;;http://algerianembassy.org.uk/;;;;http://commons.wikimedia.org/wiki/Special:FilePath/Algerian%20Embassy%20in%20London.jpg;Sdrawkcab;CC BY-SA 4.0;https://creativecommons.org/licenses/by-sa/4.0;embassy;http://www.wikidata.org/entity/Q3917681;;http://www.wikidata.org/entity/Q16208157
Algeria;http://www.wikidata.org/entity/Q262;United States of America;http://www.wikidata.org/entity/Q30;United States of America;http://www.wikidata.org/entity/Q30;Washington, D.C.;http://www.wikidata.org/entity/Q61;;38.9181;-77.0486;;;http://www.algeria-us.org/;;;;http://commons.wikimedia.org/wiki/Special:FilePath/Embassy%20Algeria%20Washington%20DC.jpg;NCinDC  / Josh Carolina;CC BY 2.0;https://creativecommons.org/licenses/by/2.0;embassy;http://www.wikidata.org/entity/Q3917681;;http://www.wikidata.org/entity/Q1770892
Algeria;http://www.wikidata.org/entity/Q262;Uzbekistan;http://www.wikidata.org/entity/Q265;Uzbekistan;http://www.wikidata.org/entity/Q265;Tashkent;http://www.wikidata.org/entity/Q269;;41.2929;69.2588;;;;;;;;;;;embassy;http://www.wikidata.org/entity/Q3917681;;http://www.wikidata.org/entity/Q100269346
Algeria;http://www.wikidata.org/entity/Q262;Venezuela;http://www.wikidata.org/entity/Q717;Venezuela;http://www.wikidata.org/entity/Q717;Caracas;http://www.wikidata.org/entity/Q1533;;10.5077;-66.8538;;;;;;;;;;;embassy;http://www.wikidata.org/entity/Q3917681;;http://www.wikidata.org/entity/Q100269353
Algeria;http://www.wikidata.org/entity/Q262;Vietnam;http://www.wikidata.org/entity/Q881;Vietnam;http://www.wikidata.org/entity/Q881;Hanoi;http://www.wikidata.org/entity/Q1858;;21.0221;105.856;;;;;;;;;;;embassy;http://www.wikidata.org/entity/Q3917681;;http://www.wikidata.org/entity/Q100269354
Algeria;http://www.wikidata.org/entity/Q262;Yemen;http://www.wikidata.org/entity/Q805;Yemen;http://www.wikidata.org/entity/Q805;Sana'a;http://www.wikidata.org/entity/Q2471;;15.3358;44.1894;;;;;;;;;;;embassy;http://www.wikidata.org/entity/Q3917681;;http://www.wikidata.org/entity/Q100269355
Algeria;http://www.wikidata.org/entity/Q262;Zambia;http://www.wikidata.org/entity/Q953;Zambia;http://www.wikidata.org/entity/Q953;Lusaka;http://www.wikidata.org/entity/Q3881;;-15.4178;28.3539;;;;;;;;;;;embassy;http://www.wikidata.org/entity/Q3917681;;http://www.wikidata.org/entity/Q100269356
Algeria;http://www.wikidata.org/entity/Q262;Zimbabwe;http://www.wikidata.org/entity/Q954;Zimbabwe;http://www.wikidata.org/entity/Q954;Harare;http://www.wikidata.org/entity/Q3921;;-17.8092;31.0456;;;;;;;;;;;embassy;http://www.wikidata.org/entity/Q3917681;;http://www.wikidata.org/entity/Q100269357
Andorra;http://www.wikidata.org/entity/Q228;Austria|Germany;http://www.wikidata.org/entity/Q40|http://www.wikidata.org/entity/Q183;Austria;http://www.wikidata.org/entity/Q40;Vienna;http://www.wikidata.org/entity/Q1741;;48.2019;16.3701;;;;;;;;;;;embassy;http://www.wikidata.org/entity/Q3917681;;http://www.wikidata.org/entity/Q102536380
Andorra;http://www.wikidata.org/entity/Q228;Belgium|Luxembourg|Netherlands;http://www.wikidata.org/entity/Q31|http://www.wikidata.org/entity/Q32|http://www.wikidata.org/entity/Q55;Belgium;http://www.wikidata.org/entity/Q31;Brussels;http://www.wikidata.org/entity/Q239;;50.847;4.3548;;;https://www.exteriors.ad/fr/ambassades-d-andorre/belgique;;;;http://commons.wikimedia.org/wiki/Special:FilePath/Bruxelles%20rue%20de%20la%20Montagne%2010.jpg;Michel wal;CC BY-SA 3.0;https://creativecommons.org/licenses/by-sa/3.0;embassy;http://www.wikidata.org/entity/Q3917681;;http://www.wikidata.org/entity/Q67194918
Andorra;http://www.wikidata.org/entity/Q228;France|Monaco;http://www.wikidata.org/entity/Q142|http://www.wikidata.org/entity/Q235;France;http://www.wikidata.org/entity/Q142;Paris;http://www.wikidata.org/entity/Q90;;48.85666667;2.27452778;;;;;;;http://commons.wikimedia.org/wiki/Special:FilePath/Ambassade%20d%27Andorre%20en%20France%207.jpg;Polymagou;CC BY-SA 4.0;https://creativecommons.org/licenses/by-sa/4.0;embassy;http://www.wikidata.org/entity/Q3917681;;http://www.wikidata.org/entity/Q15149864
Andorra;http://www.wikidata.org/entity/Q228;Portugal;http://www.wikidata.org/entity/Q45;Portugal;http://www.wikidata.org/entity/Q45;Lisbon;http://www.wikidata.org/entity/Q597;;38.7125;-9.1654;;;;;;;http://commons.wikimedia.org/wiki/Special:FilePath/Palacete%20dos%20Condes%20de%20Sabrosa%2002.jpg;RicardoFilipePereira;CC BY-SA 4.0;https://creativecommons.org/licenses/by-sa/4.0;embassy;http://www.wikidata.org/entity/Q3917681;;http://www.wikidata.org/entity/Q102536379
Andorra;http://www.wikidata.org/entity/Q228;Spain;http://www.wikidata.org/entity/Q29;Spain;http://www.wikidata.org/entity/Q29;Madrid;http://www.wikidata.org/entity/Q2807;;40.4205;-3.6874;;;;;;;http://commons.wikimedia.org/wiki/Special:FilePath/Madrid%20-%20Embajada%20de%20Andorra.JPG;Zarateman;CC0;http://creativecommons.org/publicdomain/zero/1.0/deed.en;embassy;http://www.wikidata.org/entity/Q3917681;;http://www.wikidata.org/entity/Q102535542
Andorra;http://www.wikidata.org/entity/Q228;Canada|United States of America|Mexico;http://www.wikidata.org/entity/Q16|http://www.wikidata.org/entity/Q30|http://www.wikidata.org/entity/Q96;United States of America;http://www.wikidata.org/entity/Q30;New York City;http://www.wikidata.org/entity/Q60;;40.7507;-73.9696;;;;;;;;;;;embassy;http://www.wikidata.org/entity/Q3917681;;http://www.wikidata.org/entity/Q102547820
Angola;http://www.wikidata.org/entity/Q916;Austria|Slovenia|Croatia;http://www.wikidata.org/entity/Q40|http://www.wikidata.org/entity/Q215|http://www.wikidata.org/entity/Q224;Austria;http://www.wikidata.org/entity/Q40;Vienna;http://www.wikidata.org/entity/Q1741;;48.2503;16.3553;;;http://www.embangola.at/;;;;;;;;embassy;http://www.wikidata.org/entity/Q3917681;;http://www.wikidata.org/entity/Q104602780
Angola;http://www.wikidata.org/entity/Q916;Belgium|Luxembourg;http://www.wikidata.org/entity/Q31|http://www.wikidata.org/entity/Q32;Belgium;http://www.wikidata.org/entity/Q31;Ixelles - Elsene;http://www.wikidata.org/entity/Q208713;;50.815;4.3516;;;;;;;;;;;embassy;http://www.wikidata.org/entity/Q3917681;;http://www.wikidata.org/entity/Q68191110
Angola;http://www.wikidata.org/entity/Q916;Canada;http://www.wikidata.org/entity/Q16;Canada;http://www.wikidata.org/entity/Q16;Ottawa;http://www.wikidata.org/entity/Q1930;;45.4256;-75.6828;;;;;;;http://commons.wikimedia.org/wiki/Special:FilePath/Panet%20House.JPG;;CC-BY-SA-3.0;http://creativecommons.org/licenses/by-sa/3.0/;embassy;http://www.wikidata.org/entity/Q3917681;;http://www.wikidata.org/entity/Q5369541
Angola;http://www.wikidata.org/entity/Q916;France|Monaco;http://www.wikidata.org/entity/Q142|http://www.wikidata.org/entity/Q235;France;http://www.wikidata.org/entity/Q142;Paris;http://www.wikidata.org/entity/Q90;;48.872605;2.289383;;;;;;;http://commons.wikimedia.org/wiki/Special:FilePath/H%C3%B4tel%20de%20Monpelas%20001.JPG;Moonik;CC BY-SA 3.0;https://creativecommons.org/licenses/by-sa/3.0;embassy;http://www.wikidata.org/entity/Q3917681;;http://www.wikidata.org/entity/Q15118539
Angola;http://www.wikidata.org/entity/Q916;Germany;http://www.wikidata.org/entity/Q183;Germany;http://www.wikidata.org/entity/Q183;Mitte;http://www.wikidata.org/entity/Q163966;;52.513388888;13.413;;;http://www.botschaftangola.de/de/Home.aspx;;;;http://commons.wikimedia.org/wiki/Special:FilePath/Be%20Angolan%20Embassy%2002.jpg;Achim Raschka;CC-BY-SA-3.0;http://creativecommons.org/licenses/by-sa/3.0/;embassy;http://www.wikidata.org/entity/Q3917681;1974-01-01T00:00:00Z;http://www.wikidata.org/entity/Q542028
Angola;http://www.wikidata.org/entity/Q916;Vatican City;http://www.wikidata.org/entity/Q237;Italy;http://www.wikidata.org/entity/Q38;Rome;http://www.wikidata.org/entity/Q220;;41.9026;12.4626;;;;;;;;;;;embassy;http://www.wikidata.org/entity/Q3917681;;http://www.wikidata.org/entity/Q56326676
Angola;http://www.wikidata.org/entity/Q916;Italy;http://www.wikidata.org/entity/Q38;Italy;http://www.wikidata.org/entity/Q38;Rome;http://www.wikidata.org/entity/Q220;;41.8815;12.4979;;;http://www.ambasciatangolana.com;;;;;;;;embassy;http://www.wikidata.org/entity/Q3917681;;http://www.wikidata.org/entity/Q102875420
Angola;http://www.wikidata.org/entity/Q916;Japan;http://www.wikidata.org/entity/Q17;Japan;http://www.wikidata.org/entity/Q17;Setagaya-ku;http://www.wikidata.org/entity/Q231645;;35.656787;139.672409;+81-3-5430-7879;;http://angola.or.jp;;;;;;;;embassy;http://www.wikidata.org/entity/Q3917681;;http://www.wikidata.org/entity/Q30403436
Angola;http://www.wikidata.org/entity/Q916;;;Japan;http://www.wikidata.org/entity/Q17;Tokyo;http://www.wikidata.org/entity/Q1490;;35.656830055;139.672505629;;;https://www.angola.or.jp/;;;;;;;;embassy;http://www.wikidata.org/entity/Q3917681;;http://www.wikidata.org/entity/Q104759121
Angola;http://www.wikidata.org/entity/Q916;Netherlands;http://www.wikidata.org/entity/Q55;Netherlands;http://www.wikidata.org/entity/Q55;The Hague;http://www.wikidata.org/entity/Q36600;;52.0849;4.2895;;;;;;;;;;;embassy;http://www.wikidata.org/entity/Q3917681;;http://www.wikidata.org/entity/Q100536770
Angola;http://www.wikidata.org/entity/Q916;Poland;http://www.wikidata.org/entity/Q36;Poland;http://www.wikidata.org/entity/Q36;Warsaw;http://www.wikidata.org/entity/Q270;;52.169569444;21.07925;;;http://embangola.pl;;;;http://commons.wikimedia.org/wiki/Special:FilePath/Ambasada%20ANGOLI%2002.jpg;Andrzej Błaszczak;CC BY-SA 4.0;https://creativecommons.org/licenses/by-sa/4.0;embassy;http://www.wikidata.org/entity/Q3917681;1975-01-01T00:00:00Z;http://www.wikidata.org/entity/Q9149452
Angola;http://www.wikidata.org/entity/Q916;Russia;http://www.wikidata.org/entity/Q159;Russia;http://www.wikidata.org/entity/Q159;Moscow;http://www.wikidata.org/entity/Q649;;55.71922222;37.5125;;;;;;;http://commons.wikimedia.org/wiki/Special:FilePath/Angolan%20Embassy%20Moscow.jpg;Denghu;CC BY 3.0;https://creativecommons.org/licenses/by/3.0;embassy;http://www.wikidata.org/entity/Q3917681;;http://www.wikidata.org/entity/Q4373964
Angola;http://www.wikidata.org/entity/Q916;Spain;http://www.wikidata.org/entity/Q29;Spain;http://www.wikidata.org/entity/Q29;Madrid;http://www.wikidata.org/entity/Q2807;;40.4299;-3.6847;;;http://www.embajadadeangola.com;;;;;;;;embassy;http://www.wikidata.org/entity/Q3917681;;http://www.wikidata.org/entity/Q25430840
Angola;http://www.wikidata.org/entity/Q916;Sweden;http://www.wikidata.org/entity/Q34;Sweden;http://www.wikidata.org/entity/Q34;Stockholm;http://www.wikidata.org/entity/Q1754;;59.32588611;18.07495556;;;;;;;http://commons.wikimedia.org/wiki/Special:FilePath/Skeppsbron%2048%2C%202009.jpg;Holger.Ellgaard;CC BY-SA 3.0;https://creativecommons.org/licenses/by-sa/3.0;embassy;http://www.wikidata.org/entity/Q3917681;;http://www.wikidata.org/entity/Q10411814
Angola;http://www.wikidata.org/entity/Q916;Switzerland;http://www.wikidata.org/entity/Q39;Switzerland;http://www.wikidata.org/entity/Q39;Bern;http://www.wikidata.org/entity/Q70;;46.9411255;7.4615873;+41-31-351-85-85;mailto:berna@ambassadeangola.ch;;;;;http://commons.wikimedia.org/wiki/Special:FilePath/Bern%20Thunstrasse%2073%20Embassy%20of%20Angola%20in%20Switzerland%20DSC01417.jpg;Beat Estermann;CC BY-SA 3.0;https://creativecommons.org/licenses/by-sa/3.0;embassy;http://www.wikidata.org/entity/Q3917681;;http://www.wikidata.org/entity/Q26979963
Angola;http://www.wikidata.org/entity/Q916;Ireland|United Kingdom;http://www.wikidata.org/entity/Q27|http://www.wikidata.org/entity/Q145;United Kingdom;http://www.wikidata.org/entity/Q145;City of Westminster;http://www.wikidata.org/entity/Q179351;;51.5192;-0.158028;;;http://www.angola.org.uk/;;;;http://commons.wikimedia.org/wiki/Special:FilePath/Embassy%20of%20Angola%20in%20London.jpg;Sdrawkcab;CC BY-SA 3.0;https://creativecommons.org/licenses/by-sa/3.0;embassy;http://www.wikidata.org/entity/Q3917681;;http://www.wikidata.org/entity/Q16251282
Angola;http://www.wikidata.org/entity/Q916;United States of America;http://www.wikidata.org/entity/Q30;United States of America;http://www.wikidata.org/entity/Q30;Washington, D.C.;http://www.wikidata.org/entity/Q61;;38.9181;-77.0367;;;http://www.angola.org;;;;http://commons.wikimedia.org/wiki/Special:FilePath/Embassy%20of%20Angola%20%28Washington%2C%20D.C.%29.JPG;AgnosticPreachersKid;CC BY-SA 3.0;https://creativecommons.org/licenses/by-sa/3.0;embassy;http://www.wikidata.org/entity/Q3917681;;http://www.wikidata.org/entity/Q5369542
Antigua and Barbuda;http://www.wikidata.org/entity/Q781;Spain|Monaco|Liechtenstein;http://www.wikidata.org/entity/Q29|http://www.wikidata.org/entity/Q235|http://www.wikidata.org/entity/Q347;Spain;http://www.wikidata.org/entity/Q29;Madrid;http://www.wikidata.org/entity/Q2807;;40.4154;-3.6912;;;https://embassy.ag/;;;;;;;;embassy;http://www.wikidata.org/entity/Q3917681;2018-01-01T00:00:00Z;http://www.wikidata.org/entity/Q104196428
Antigua and Barbuda;http://www.wikidata.org/entity/Q781;France|United Kingdom;http://www.wikidata.org/entity/Q142|http://www.wikidata.org/entity/Q145;United Kingdom;http://www.wikidata.org/entity/Q145;London;http://www.wikidata.org/entity/Q84;;51.5189;-0.165194;;;;;;;http://commons.wikimedia.org/wiki/Special:FilePath/High%20Commission%20of%20Antigua%20and%20Barbuda-Belize%20in%20London.jpeg;Sdrawkcab;CC BY-SA 3.0;https://creativecommons.org/licenses/by-sa/3.0;high commission;http://www.wikidata.org/entity/Q18414273;;http://www.wikidata.org/entity/Q16842952
Argentina;http://www.wikidata.org/entity/Q414;Austria;http://www.wikidata.org/entity/Q40;Austria;http://www.wikidata.org/entity/Q40;Vienna;http://www.wikidata.org/entity/Q1741;;48.210147;16.374432;;;;;;;http://commons.wikimedia.org/wiki/Special:FilePath/Edificio%20que%20alberga%20la%20Embajada%20Argentina.jpg;EmbajadaArgentina;CC BY-SA 4.0;https://creativecommons.org/licenses/by-sa/4.0;embassy;http://www.wikidata.org/entity/Q3917681;;http://www.wikidata.org/entity/Q15216555
Argentina;http://www.wikidata.org/entity/Q414;Belgium|Luxembourg;http://www.wikidata.org/entity/Q31|http://www.wikidata.org/entity/Q32;Belgium;http://www.wikidata.org/entity/Q31;Brussels;http://www.wikidata.org/entity/Q239;;50.8257;4.3649;;;;;;;;;;;embassy;http://www.wikidata.org/entity/Q3917681;;http://www.wikidata.org/entity/Q68192668
Argentina;http://www.wikidata.org/entity/Q414;Bulgaria;http://www.wikidata.org/entity/Q219;Bulgaria;http://www.wikidata.org/entity/Q219;Sofia Capital Municipality;http://www.wikidata.org/entity/Q4442915;;42.670277777;23.350833333;;;;;;;;;;;embassy;http://www.wikidata.org/entity/Q3917681;;http://www.wikidata.org/entity/Q41588555
Argentina;http://www.wikidata.org/entity/Q414;Canada;http://www.wikidata.org/entity/Q16;Canada;http://www.wikidata.org/entity/Q16;Ontario;http://www.wikidata.org/entity/Q1904;;45.4212;-75.6957;;;;;;;;;;;embassy;http://www.wikidata.org/entity/Q3917681;;http://www.wikidata.org/entity/Q5369546
Argentina;http://www.wikidata.org/entity/Q414;Chile;http://www.wikidata.org/entity/Q298;Chile;http://www.wikidata.org/entity/Q298;Santiago;http://www.wikidata.org/entity/Q2887;;;;;;;;;;;;;;embassy;http://www.wikidata.org/entity/Q3917681;;http://www.wikidata.org/entity/Q16561578
Argentina;http://www.wikidata.org/entity/Q414;Colombia;http://www.wikidata.org/entity/Q739;Colombia;http://www.wikidata.org/entity/Q739;Bogota;http://www.wikidata.org/entity/Q2841;;;;;;https://ecolo.cancilleria.gob.ar/;;;;;;;;embassy;http://www.wikidata.org/entity/Q3917681;;http://www.wikidata.org/entity/Q79604096
Argentina;http://www.wikidata.org/entity/Q414;Finland;http://www.wikidata.org/entity/Q33;Finland;http://www.wikidata.org/entity/Q33;Helsinki;http://www.wikidata.org/entity/Q1757;;60.165093;24.938865;;;;;;;http://commons.wikimedia.org/wiki/Special:FilePath/Embassy%20of%20Argentina%20in%20Helsinki%2C%20Finland.JPG;Azylber;CC BY-SA 3.0;https://creativecommons.org/licenses/by-sa/3.0;embassy;http://www.wikidata.org/entity/Q3917681;;http://www.wikidata.org/entity/Q5369545
Argentina;http://www.wikidata.org/entity/Q414;France|Monaco;http://www.wikidata.org/entity/Q142|http://www.wikidata.org/entity/Q235;France;http://www.wikidata.org/entity/Q142;Paris;http://www.wikidata.org/entity/Q90;;48.8682;2.2901;;;;;;;http://commons.wikimedia.org/wiki/Special:FilePath/Argentine%20embassy%20in%20France.jpg;Pymouss44;CC BY-SA 3.0;https://creativecommons.org/licenses/by-sa/3.0;embassy;http://www.wikidata.org/entity/Q3917681;;http://www.wikidata.org/entity/Q5830346
Argentina;http://www.wikidata.org/entity/Q414;Germany;http://www.wikidata.org/entity/Q183;Germany;http://www.wikidata.org/entity/Q183;Berlin;http://www.wikidata.org/entity/Q64;;52.5012;13.3446;;;https://ealem.cancilleria.gob.ar/;;;;http://commons.wikimedia.org/wiki/Special:FilePath/Berlin%20-%20Botschaft%20von%20Argentinien%2020191025.jpg;Pymouss;CC BY-SA 4.0;https://creativecommons.org/licenses/by-sa/4.0;embassy;http://www.wikidata.org/entity/Q3917681;;http://www.wikidata.org/entity/Q72619932
Argentina;http://www.wikidata.org/entity/Q414;Greece;http://www.wikidata.org/entity/Q41;Greece;http://www.wikidata.org/entity/Q41;Athens;http://www.wikidata.org/entity/Q1524;;37.978;23.7514;;;;;;;http://commons.wikimedia.org/wiki/Special:FilePath/Embassy%20of%20Argentina%20in%20Athens%2C%20Greece.jpg;Azylber;CC BY-SA 3.0;https://creativecommons.org/licenses/by-sa/3.0;embassy;http://www.wikidata.org/entity/Q3917681;;http://www.wikidata.org/entity/Q16891012
Argentina;http://www.wikidata.org/entity/Q414;Ireland;http://www.wikidata.org/entity/Q27;Ireland;http://www.wikidata.org/entity/Q27;Dublin;http://www.wikidata.org/entity/Q1761;;53.3209;-6.2282;;;;;;;;;;;embassy;http://www.wikidata.org/entity/Q3917681;;http://www.wikidata.org/entity/Q104761726
Argentina;http://www.wikidata.org/entity/Q414;Vatican City|Sovereign Military Order of Malta;http://www.wikidata.org/entity/Q237|http://www.wikidata.org/entity/Q190353;Italy;http://www.wikidata.org/entity/Q38;Rome;http://www.wikidata.org/entity/Q220;;41.9026;12.4617;;;https://essed.cancilleria.gob.ar/;;;;http://commons.wikimedia.org/wiki/Special:FilePath/Argentine%20embassy%20vatican%20city.jpg;Jor70;CC BY 2.5;https://creativecommons.org/licenses/by/2.5;embassy;http://www.wikidata.org/entity/Q3917681;1857-01-01T00:00:00Z;http://www.wikidata.org/entity/Q56326457
Argentina;http://www.wikidata.org/entity/Q414;Italy;http://www.wikidata.org/entity/Q38;Italy;http://www.wikidata.org/entity/Q38;Rome;http://www.wikidata.org/entity/Q220;;41.8988;12.4971;;;http://www.eital.mrecic.gov.ar;;;;http://commons.wikimedia.org/wiki/Special:FilePath/Busts%20de%20Bartolom%C3%A8%20Mitre%20i%20Manuel%20Belgrano%20-%20piazza%20esquilino%2002.jpg;Jordiferrer;CC BY-SA 4.0;https://creativecommons.org/licenses/by-sa/4.0;embassy;http://www.wikidata.org/entity/Q3917681;;http://www.wikidata.org/entity/Q102877212
Argentina;http://www.wikidata.org/entity/Q414;Japan;http://www.wikidata.org/entity/Q17;Japan;http://www.wikidata.org/entity/Q17;Tokyo;http://www.wikidata.org/entity/Q1490;;35.652659;139.730617;;;https://ejapo.cancilleria.gob.ar/ja;ArgJapon;;;http://commons.wikimedia.org/wiki/Special:FilePath/Embassy%20of%20Argentina%20in%20Japan.JPG;Nissy-KITAQ;CC BY-SA 3.0;https://creativecommons.org/licenses/by-sa/3.0;embassy;http://www.wikidata.org/entity/Q3917681;;http://www.wikidata.org/entity/Q61877352
Argentina;http://www.wikidata.org/entity/Q414;Netherlands;http://www.wikidata.org/entity/Q55;Netherlands;http://www.wikidata.org/entity/Q55;The Hague;http://www.wikidata.org/entity/Q36600;;52.0878;4.3026;;;https://epbaj.cancilleria.gob.ar/;;;;http://commons.wikimedia.org/wiki/Special:FilePath/Den%20Haag%20-%20Javastraat%2020.JPG;Rudolphous;CC BY-SA 3.0 nl;https://creativecommons.org/licenses/by-sa/3.0/nl/deed.en;embassy;http://www.wikidata.org/entity/Q3917681;;http://www.wikidata.org/entity/Q100556207
Argentina;http://www.wikidata.org/entity/Q414;Norway;http://www.wikidata.org/entity/Q20;Norway;http://www.wikidata.org/entity/Q20;Oslo Municipality;http://www.wikidata.org/entity/Q5245991;;59.913489;10.713006;;;;;;;http://commons.wikimedia.org/wiki/Special:FilePath/Drammensveien%2039%20-%202009-06-20%20at%2018-06-59.jpg;Kjetil r;CC BY-SA 3.0;https://creativecommons.org/licenses/by-sa/3.0;embassy;http://www.wikidata.org/entity/Q3917681;;http://www.wikidata.org/entity/Q17749141
Argentina;http://www.wikidata.org/entity/Q414;Pakistan;http://www.wikidata.org/entity/Q843;Pakistan;http://www.wikidata.org/entity/Q843;Islamabad;http://www.wikidata.org/entity/Q1362;;33.7347;73.0751;;;https://epaki.cancilleria.gob.ar/;;;;;;;;embassy;http://www.wikidata.org/entity/Q3917681;;http://www.wikidata.org/entity/Q30593061
Argentina;http://www.wikidata.org/entity/Q414;People's Republic of China;http://www.wikidata.org/entity/Q148;People's Republic of China;http://www.wikidata.org/entity/Q148;Beijing;http://www.wikidata.org/entity/Q956;;39.944;116.455898;;;;;;;http://commons.wikimedia.org/wiki/Special:FilePath/Embassy%20of%20Argentina%20in%20Beijing%2C%20China.JPG;Azylber;CC BY-SA 3.0;https://creativecommons.org/licenses/by-sa/3.0;embassy;http://www.wikidata.org/entity/Q3917681;;http://www.wikidata.org/entity/Q5369544
Argentina;http://www.wikidata.org/entity/Q414;Peru;http://www.wikidata.org/entity/Q419;Peru;http://www.wikidata.org/entity/Q419;Lima District;http://www.wikidata.org/entity/Q3031413;;-12.0649;-77.0371;;;;;;;http://commons.wikimedia.org/wiki/Special:FilePath/Sede%20Embajada%20Argentina%20en%20Per%C3%BA.jpg;Matriz1961;CC BY-SA 3.0;https://creativecommons.org/licenses/by-sa/3.0;embassy;http://www.wikidata.org/entity/Q3917681;;http://www.wikidata.org/entity/Q5638425
Argentina;http://www.wikidata.org/entity/Q414;Poland;http://www.wikidata.org/entity/Q36;Poland;http://www.wikidata.org/entity/Q36;Warsaw;http://www.wikidata.org/entity/Q270;;52.224447222;21.064547222;+48-22-617-60-28;;http://epolo.cancilleria.gov.ar/pl;;;;http://commons.wikimedia.org/wiki/Special:FilePath/Ambasada%20Argentyny%20w%20Warszawie%201.jpg;Darpaw;CC BY-SA 4.0;https://creativecommons.org/licenses/by-sa/4.0;embassy;http://www.wikidata.org/entity/Q3917681;1922-01-01T00:00:00Z;http://www.wikidata.org/entity/Q9149456
Argentina;http://www.wikidata.org/entity/Q414;Russia;http://www.wikidata.org/entity/Q159;Russia;http://www.wikidata.org/entity/Q159;Moscow;http://www.wikidata.org/entity/Q649;;55.73083333;37.62388889;;;;;;;http://commons.wikimedia.org/wiki/Special:FilePath/Moscow%2C%20Bolshaya%20Ordynka%2072%2C%20embassy%20of%20Argentina.jpg;NVO;CC BY-SA 3.0;https://creativecommons.org/licenses/by-sa/3.0;embassy;http://www.wikidata.org/entity/Q3917681;1947-01-01T00:00:00Z;http://www.wikidata.org/entity/Q4373969
Argentina;http://www.wikidata.org/entity/Q414;Saudi Arabia;http://www.wikidata.org/entity/Q851;Saudi Arabia;http://www.wikidata.org/entity/Q851;Riyadh;http://www.wikidata.org/entity/Q3692;;;;;;;;;;;;;;embassy;http://www.wikidata.org/entity/Q3917681;;http://www.wikidata.org/entity/Q68169927
Argentina;http://www.wikidata.org/entity/Q414;Sweden;http://www.wikidata.org/entity/Q34;Sweden;http://www.wikidata.org/entity/Q34;Stockholm;http://www.wikidata.org/entity/Q1754;;59.33672222;18.09119167;;;;;;;http://commons.wikimedia.org/wiki/Special:FilePath/Embajada%20fachada%202020.jpg;Argentinas Ambassad;CC BY-SA 4.0;https://creativecommons.org/licenses/by-sa/4.0;embassy;http://www.wikidata.org/entity/Q3917681;;http://www.wikidata.org/entity/Q10417566
Argentina;http://www.wikidata.org/entity/Q414;Switzerland;http://www.wikidata.org/entity/Q39;Switzerland;http://www.wikidata.org/entity/Q39;Bern;http://www.wikidata.org/entity/Q70;;46.9440888;7.4546108;+41-31-356-43-43;mailto:esuiz@mrecic.gov.ar;;;;;http://commons.wikimedia.org/wiki/Special:FilePath/Bern%20Elfenstrasse%205%20Embassy%20of%20Argentina%20in%20Switzerland%20Residency%20DSC01350.jpg;Beat Estermann;CC BY-SA 3.0;https://creativecommons.org/licenses/by-sa/3.0;embassy;http://www.wikidata.org/entity/Q3917681;;http://www.wikidata.org/entity/Q26979980
Argentina;http://www.wikidata.org/entity/Q414;Ukraine;http://www.wikidata.org/entity/Q212;Ukraine;http://www.wikidata.org/entity/Q212;Kyiv;http://www.wikidata.org/entity/Q1899;;50.42821252;30.51456037;+380-44-238-6922;mailto:eucra@mrecic.gov.ar;http://eucra.mrecic.gov.ar;ArgentinaEnUcrania;;;http://commons.wikimedia.org/wiki/Special:FilePath/Embassy%20Ivana%20Fedorova%2012%20in%20Kyiv%202.jpg;Dogvillan;CC BY-SA 4.0;https://creativecommons.org/licenses/by-sa/4.0;embassy;http://www.wikidata.org/entity/Q3917681;1993-05-01T00:00:00Z;http://www.wikidata.org/entity/Q1661719
Argentina;http://www.wikidata.org/entity/Q414;United Kingdom;http://www.wikidata.org/entity/Q145;United Kingdom;http://www.wikidata.org/entity/Q145;London;http://www.wikidata.org/entity/Q84;;51.5125;-0.14875;;;;;;;http://commons.wikimedia.org/wiki/Special:FilePath/Argentine%20ambassador%27s%20residence%2C%20London.jpg;Sdrawkcab;CC BY-SA 3.0;https://creativecommons.org/licenses/by-sa/3.0;embassy;http://www.wikidata.org/entity/Q3917681;;http://www.wikidata.org/entity/Q16975289
Argentina;http://www.wikidata.org/entity/Q414;United States of America;http://www.wikidata.org/entity/Q30;United States of America;http://www.wikidata.org/entity/Q30;Washington, D.C.;http://www.wikidata.org/entity/Q61;;38.9111;-77.0422;;;http://www.eeeuu.mrecic.gov.ar/;;;;http://commons.wikimedia.org/wiki/Special:FilePath/Embassy%20of%20Argentina%20United%20States.JPG;AgnosticPreachersKid;CC BY-SA 3.0;https://creativecommons.org/licenses/by-sa/3.0;embassy;http://www.wikidata.org/entity/Q3917681;;http://www.wikidata.org/entity/Q5369547
Armenia;http://www.wikidata.org/entity/Q399;Austria;http://www.wikidata.org/entity/Q40;Austria;http://www.wikidata.org/entity/Q40;Vienna;http://www.wikidata.org/entity/Q1741;;48.18835;16.30964;;;;;;;http://commons.wikimedia.org/wiki/Special:FilePath/Wien-Penzing%20-%20Armenische%20Botschaft.jpg;Haeferl;CC BY-SA 3.0;https://creativecommons.org/licenses/by-sa/3.0;embassy;http://www.wikidata.org/entity/Q3917681;;http://www.wikidata.org/entity/Q51722415
Armenia;http://www.wikidata.org/entity/Q399;Belarus;http://www.wikidata.org/entity/Q184;Belarus;http://www.wikidata.org/entity/Q184;Minsk;http://www.wikidata.org/entity/Q2280;;53.90434;27.62103;;;;;;;;;;;embassy;http://www.wikidata.org/entity/Q3917681;;http://www.wikidata.org/entity/Q33116785
Armenia;http://www.wikidata.org/entity/Q399;Belgium;http://www.wikidata.org/entity/Q31;Belgium;http://www.wikidata.org/entity/Q31;Brussels;http://www.wikidata.org/entity/Q239;;50.8413;4.3703;;;;;;;http://commons.wikimedia.org/wiki/Special:FilePath/Montoyer%2026-28%20Brussels%202012-04%20B.jpg;Zinneke;CC BY-SA 3.0;https://creativecommons.org/licenses/by-sa/3.0;embassy;http://www.wikidata.org/entity/Q3917681;;http://www.wikidata.org/entity/Q68193262
Armenia;http://www.wikidata.org/entity/Q399;Bulgaria;http://www.wikidata.org/entity/Q219;Bulgaria;http://www.wikidata.org/entity/Q219;Sofia Capital Municipality;http://www.wikidata.org/entity/Q4442915;;42.688611111;23.353611111;;;;;;;http://commons.wikimedia.org/wiki/Special:FilePath/Armenian-embassy-in-Sofia.jpg;Edal;CC BY-SA 3.0;https://creativecommons.org/licenses/by-sa/3.0;embassy;http://www.wikidata.org/entity/Q3917681;;http://www.wikidata.org/entity/Q31194238
Armenia;http://www.wikidata.org/entity/Q399;Canada;http://www.wikidata.org/entity/Q16;Canada;http://www.wikidata.org/entity/Q16;Ottawa;http://www.wikidata.org/entity/Q1930;;;;;;;;;;http://commons.wikimedia.org/wiki/Special:FilePath/Armenia%2C%20Ottawa.JPG;SimonP;CC-BY-SA-3.0;http://creativecommons.org/licenses/by-sa/3.0/;embassy;http://www.wikidata.org/entity/Q3917681;;http://www.wikidata.org/entity/Q5369550
Armenia;http://www.wikidata.org/entity/Q399;Czech Republic;http://www.wikidata.org/entity/Q213;Czech Republic;http://www.wikidata.org/entity/Q213;Prague;http://www.wikidata.org/entity/Q1085;;;;;;;;;;http://commons.wikimedia.org/wiki/Special:FilePath/Armenian%20embassy%20Prague%20Dejvice%205711.JPG;Krokodyl;CC BY-SA 3.0;https://creativecommons.org/licenses/by-sa/3.0;embassy;http://www.wikidata.org/entity/Q3917681;;http://www.wikidata.org/entity/Q31194240
Armenia;http://www.wikidata.org/entity/Q399;Egypt;http://www.wikidata.org/entity/Q79;Egypt;http://www.wikidata.org/entity/Q79;Cairo;http://www.wikidata.org/entity/Q85;;51.499;-0.193;;;;;;;http://commons.wikimedia.org/wiki/Special:FilePath/Armenian%20Embassy%20in%20Cairo.JPG;Equivocus;CC BY-SA 3.0;https://creativecommons.org/licenses/by-sa/3.0;embassy;http://www.wikidata.org/entity/Q3917681;;http://www.wikidata.org/entity/Q5369548
Armenia;http://www.wikidata.org/entity/Q399;;;France;http://www.wikidata.org/entity/Q142;3rd arrondissement of Lyon;http://www.wikidata.org/entity/Q3348;;45.751525;4.875366;;;http://www.france.mfa.am/fr/contact/;;;;http://commons.wikimedia.org/wiki/Special:FilePath/Consulat%20g%C3%A9n%C3%A9ral%20d%27Arm%C3%A9nie%20%C3%A0%20Lyon.JPG;Benoît Prieur;CC BY-SA 4.0;https://creativecommons.org/licenses/by-sa/4.0;consulate general;http://www.wikidata.org/entity/Q372690;;http://www.wikidata.org/entity/Q55555245
Armenia;http://www.wikidata.org/entity/Q399;;;France;http://www.wikidata.org/entity/Q142;Marseille;http://www.wikidata.org/entity/Q23482;;43.2723;5.38453;;;;;;;;;;;consulate general;http://www.wikidata.org/entity/Q372690;;http://www.wikidata.org/entity/Q8298044
Armenia;http://www.wikidata.org/entity/Q399;France|Monaco;http://www.wikidata.org/entity/Q142|http://www.wikidata.org/entity/Q235;France;http://www.wikidata.org/entity/Q142;Paris;http://www.wikidata.org/entity/Q90;;48.884111;2.306472;;;http://france.mfa.am/fr;;;;http://commons.wikimedia.org/wiki/Special:FilePath/Armenian%20embassy%20in%20France%2020080511%201.jpg;Okki;CC BY-SA 3.0;https://creativecommons.org/licenses/by-sa/3.0;embassy;http://www.wikidata.org/entity/Q3917681;;http://www.wikidata.org/entity/Q2841584
Armenia;http://www.wikidata.org/entity/Q399;Germany;http://www.wikidata.org/entity/Q183;Germany;http://www.wikidata.org/entity/Q183;Berlin;http://www.wikidata.org/entity/Q64;;52.517088888;13.275730555;;;http://www.germany.mfa.am/en/;;;;http://commons.wikimedia.org/wiki/Special:FilePath/Armenische%20Botschaft%2C%20Berlin.JPG;Aschroet;CC0;http://creativecommons.org/publicdomain/zero/1.0/deed.en;embassy;http://www.wikidata.org/entity/Q3917681;;http://www.wikidata.org/entity/Q22344384
Armenia;http://www.wikidata.org/entity/Q399;Iraq;http://www.wikidata.org/entity/Q796;Iraq;http://www.wikidata.org/entity/Q796;Baghdad;http://www.wikidata.org/entity/Q1530;;;;;;;;;;http://commons.wikimedia.org/wiki/Special:FilePath/Armenian%20Embassy%20in%20Iraq.jpg;Equivocus;CC BY-SA 4.0;https://creativecommons.org/licenses/by-sa/4.0;embassy;http://www.wikidata.org/entity/Q3917681;;http://www.wikidata.org/entity/Q48988957
Armenia;http://www.wikidata.org/entity/Q399;Vatican City;http://www.wikidata.org/entity/Q237;Italy;http://www.wikidata.org/entity/Q38;Rome;http://www.wikidata.org/entity/Q220;;41.903;12.4606;;;http://vatican.mfa.am/;;;;;;;;embassy;http://www.wikidata.org/entity/Q3917681;;http://www.wikidata.org/entity/Q56326147
Armenia;http://www.wikidata.org/entity/Q399;Italy;http://www.wikidata.org/entity/Q38;Italy;http://www.wikidata.org/entity/Q38;Rome;http://www.wikidata.org/entity/Q220;;41.9049;12.4952;;;https://italy.mfa.am;;;;;;;;embassy;http://www.wikidata.org/entity/Q3917681;;http://www.wikidata.org/entity/Q102880261
Armenia;http://www.wikidata.org/entity/Q399;Luxembourg|Netherlands;http://www.wikidata.org/entity/Q32|http://www.wikidata.org/entity/Q55;Netherlands;http://www.wikidata.org/entity/Q55;The Hague;http://www.wikidata.org/entity/Q36600;;52.0841;4.2931;;;;;;;;;;;embassy;http://www.wikidata.org/entity/Q3917681;;http://www.wikidata.org/entity/Q100552798
Armenia;http://www.wikidata.org/entity/Q399;Poland;http://www.wikidata.org/entity/Q36;Poland;http://www.wikidata.org/entity/Q36;Warsaw;http://www.wikidata.org/entity/Q270;;52.150080555;21.022316666;+48-22-899-09-40;;http://poland.mfa.am/en/;;;;http://commons.wikimedia.org/wiki/Special:FilePath/Ambasada%20Armenii%20w%20Warszawie.jpg;Darpaw;CC BY-SA 4.0;https://creativecommons.org/licenses/by-sa/4.0;embassy;http://www.wikidata.org/entity/Q3917681;1992-01-01T00:00:00Z;http://www.wikidata.org/entity/Q9149455
Armenia;http://www.wikidata.org/entity/Q399;Russia;http://www.wikidata.org/entity/Q159;Russia;http://www.wikidata.org/entity/Q159;Moscow;http://www.wikidata.org/entity/Q649;;55.76063889;37.63483333;;;;;;;http://commons.wikimedia.org/wiki/Special:FilePath/Moscow%2C%20embassy%20of%20Armenia%20%282%29.jpg;NVO;CC BY-SA 3.0;https://creativecommons.org/licenses/by-sa/3.0;embassy;http://www.wikidata.org/entity/Q3917681;;http://www.wikidata.org/entity/Q4373965
Armenia;http://www.wikidata.org/entity/Q399;Sweden;http://www.wikidata.org/entity/Q34;Sweden;http://www.wikidata.org/entity/Q34;Stockholm;http://www.wikidata.org/entity/Q1754;;59.3399979;18.0596974;;;http://www.sweden.mfa.am/;;;;http://commons.wikimedia.org/wiki/Special:FilePath/Armenian%20Embassy%20in%20Stockholm.JPG;I99pema;CC BY-SA 3.0;https://creativecommons.org/licenses/by-sa/3.0;embassy;http://www.wikidata.org/entity/Q3917681;;http://www.wikidata.org/entity/Q18287079
Armenia;http://www.wikidata.org/entity/Q399;Switzerland;http://www.wikidata.org/entity/Q39;Switzerland;http://www.wikidata.org/entity/Q39;Geneva;http://www.wikidata.org/entity/Q71;;46.2176;6.1498;;;;;;;http://commons.wikimedia.org/wiki/Special:FilePath/Ch%C3%A2teau-Banquet-16-1.jpg;MHM55;CC BY-SA 4.0;https://creativecommons.org/licenses/by-sa/4.0;embassy;http://www.wikidata.org/entity/Q3917681;;http://www.wikidata.org/entity/Q100906222
Armenia;http://www.wikidata.org/entity/Q399;Ukraine;http://www.wikidata.org/entity/Q212;Ukraine;http://www.wikidata.org/entity/Q212;Kyiv;http://www.wikidata.org/entity/Q1899;;50.44823926;30.51455606;+380-44-234-9005;mailto:armukraineembassy@mfa.am;http://ukraine.mfa.am;;;;http://commons.wikimedia.org/wiki/Special:FilePath/Embassy%20of%20Armenia%20in%20Ukraine.jpg;Nick Grapsy;CC BY-SA 4.0;https://creativecommons.org/licenses/by-sa/4.0;embassy;http://www.wikidata.org/entity/Q3917681;1992-01-01T00:00:00Z;http://www.wikidata.org/entity/Q12142657
Armenia;http://www.wikidata.org/entity/Q399;Ireland|United Kingdom;http://www.wikidata.org/entity/Q27|http://www.wikidata.org/entity/Q145;United Kingdom;http://www.wikidata.org/entity/Q145;London;http://www.wikidata.org/entity/Q84;;51.499;-0.193;;;;;;;http://commons.wikimedia.org/wiki/Special:FilePath/Embassy%20of%20Armenia%20in%20London%201.jpg;Sdrawkcab;CC BY-SA 3.0;https://creativecommons.org/licenses/by-sa/3.0;embassy;http://www.wikidata.org/entity/Q3917681;;http://www.wikidata.org/entity/Q16891023
Armenia;http://www.wikidata.org/entity/Q399;United States of America;http://www.wikidata.org/entity/Q30;United States of America;http://www.wikidata.org/entity/Q30;Washington, D.C.;http://www.wikidata.org/entity/Q61;;38.9126;-77.0499;;;http://www.usa.mfa.am/en/;;;;http://commons.wikimedia.org/wiki/Special:FilePath/Embassy%20of%20Armenia-Washington.JPG;AgnosticPreachersKid;CC BY-SA 3.0;https://creativecommons.org/licenses/by-sa/3.0;embassy;http://www.wikidata.org/entity/Q3917681;1993-01-01T00:00:00Z;http://www.wikidata.org/entity/Q5369552
Australia;http://www.wikidata.org/entity/Q408;Afghanistan;http://www.wikidata.org/entity/Q889;Afghanistan;http://www.wikidata.org/entity/Q889;Kabul;http://www.wikidata.org/entity/Q5838;;;;+61-2-6261-3305;;http://afghanistan.embassy.gov.au/;;;;;;;;embassy;http://www.wikidata.org/entity/Q3917681;;http://www.wikidata.org/entity/Q23891470
Australia;http://www.wikidata.org/entity/Q408;;;Angola;http://www.wikidata.org/entity/Q916;Luanda;http://www.wikidata.org/entity/Q3897;;;;+244-222-395-890;;http://dfat.gov.au/about-us/our-locations/missions/pages/australian-consulate-in-luanda-angola.aspx;;;;;;;;consulate;http://www.wikidata.org/entity/Q7843791;;http://www.wikidata.org/entity/Q23891474
Australia;http://www.wikidata.org/entity/Q408;;;Antigua and Barbuda;http://www.wikidata.org/entity/Q781;Saint John's;http://www.wikidata.org/entity/Q36262;;;;;;;;;;;;;;consulate;http://www.wikidata.org/entity/Q7843791;;http://www.wikidata.org/entity/Q23891476
Australia;http://www.wikidata.org/entity/Q408;Argentina;http://www.wikidata.org/entity/Q414;Argentina;http://www.wikidata.org/entity/Q414;Buenos Aires;http://www.wikidata.org/entity/Q1486;;;;;;http://argentina.embassy.gov.au/;;;;;;;;embassy;http://www.wikidata.org/entity/Q3917681;;http://www.wikidata.org/entity/Q23891477
Australia;http://www.wikidata.org/entity/Q408;Austria;http://www.wikidata.org/entity/Q40;Austria;http://www.wikidata.org/entity/Q40;Vienna;http://www.wikidata.org/entity/Q1741;;48.1986;16.373;;;http://austria.embassy.gov.au/;;;;http://commons.wikimedia.org/wiki/Special:FilePath/Wien%20-%20Botschaften%20von%20Australien%20und%20Neuseeland%2001.jpg;Pymouss;CC BY-SA 4.0;https://creativecommons.org/licenses/by-sa/4.0;embassy;http://www.wikidata.org/entity/Q3917681;;http://www.wikidata.org/entity/Q23891480
Australia;http://www.wikidata.org/entity/Q408;Bangladesh;http://www.wikidata.org/entity/Q902;Bangladesh;http://www.wikidata.org/entity/Q902;Dhaka;http://www.wikidata.org/entity/Q1354;;;;;;http://bangladesh.embassy.gov.au/;;;;;;;;Australian High Commission;http://www.wikidata.org/entity/Q4824242;;http://www.wikidata.org/entity/Q23891496
Australia;http://www.wikidata.org/entity/Q408;;;Barbados;http://www.wikidata.org/entity/Q244;Saint Michael;http://www.wikidata.org/entity/Q819170;;;;;;;;;;;;;;consulate;http://www.wikidata.org/entity/Q7843791;;http://www.wikidata.org/entity/Q23891511
Australia;http://www.wikidata.org/entity/Q408;Belgium|Luxembourg;http://www.wikidata.org/entity/Q31|http://www.wikidata.org/entity/Q32;Belgium;http://www.wikidata.org/entity/Q31;Brussels;http://www.wikidata.org/entity/Q239;;50.8411;4.3667;;;http://eu.mission.gov.au/;;;;;;;;embassy;http://www.wikidata.org/entity/Q3917681;;http://www.wikidata.org/entity/Q23891513
Australia;http://www.wikidata.org/entity/Q408;;;Bolivia;http://www.wikidata.org/entity/Q750;La Paz;http://www.wikidata.org/entity/Q1491;;;;;;;;;;;;;;consulate;http://www.wikidata.org/entity/Q7843791;;http://www.wikidata.org/entity/Q23891518
Australia;http://www.wikidata.org/entity/Q408;;;Bosnia and Herzegovina;http://www.wikidata.org/entity/Q225;Sarajevo;http://www.wikidata.org/entity/Q11194;;;;;;;;;;;;;;honorary consulate;http://www.wikidata.org/entity/Q23891529;;http://www.wikidata.org/entity/Q23891521
Australia;http://www.wikidata.org/entity/Q408;;;Botswana;http://www.wikidata.org/entity/Q963;Gaborone;http://www.wikidata.org/entity/Q3919;;;;;;;;;;;;;;consulate;http://www.wikidata.org/entity/Q7843791;;http://www.wikidata.org/entity/Q23891531
Australia;http://www.wikidata.org/entity/Q408;Brunei;http://www.wikidata.org/entity/Q921;Brunei;http://www.wikidata.org/entity/Q921;Bandar Seri Begawan;http://www.wikidata.org/entity/Q9279;;;;;;http://bruneidarussalam.embassy.gov.au/;;;;;;;;Australian High Commission;http://www.wikidata.org/entity/Q4824242;;http://www.wikidata.org/entity/Q23891536
Australia;http://www.wikidata.org/entity/Q408;;;Bulgaria;http://www.wikidata.org/entity/Q219;Sofia Capital Municipality;http://www.wikidata.org/entity/Q4442915;;;;;;;;;;;;;;honorary consulate;http://www.wikidata.org/entity/Q23891529;;http://www.wikidata.org/entity/Q23891546
Australia;http://www.wikidata.org/entity/Q408;Cambodia;http://www.wikidata.org/entity/Q424;Cambodia;http://www.wikidata.org/entity/Q424;Phnom Penh;http://www.wikidata.org/entity/Q1850;;;;;;http://cambodia.embassy.gov.au/;;;;;;;;embassy;http://www.wikidata.org/entity/Q3917681;;http://www.wikidata.org/entity/Q23891558
Australia;http://www.wikidata.org/entity/Q408;Chile;http://www.wikidata.org/entity/Q298;Chile;http://www.wikidata.org/entity/Q298;Santiago;http://www.wikidata.org/entity/Q2887;;;;;;http://chile.embassy.gov.au/;;;;http://commons.wikimedia.org/wiki/Special:FilePath/Australian%20Embassy%20in%20Santiago%20de%20Chile.jpg;Igallards7;CC BY-SA 4.0;https://creativecommons.org/licenses/by-sa/4.0;embassy;http://www.wikidata.org/entity/Q3917681;;http://www.wikidata.org/entity/Q5575245
Australia;http://www.wikidata.org/entity/Q408;;;Colombia;http://www.wikidata.org/entity/Q739;Bogota;http://www.wikidata.org/entity/Q2841;;;;;;;;;;;;;;consulate general;http://www.wikidata.org/entity/Q372690;;http://www.wikidata.org/entity/Q23891582
Australia;http://www.wikidata.org/entity/Q408;;;Costa Rica;http://www.wikidata.org/entity/Q800;San José;http://www.wikidata.org/entity/Q3070;;;;;;;;;;;;;;consulate;http://www.wikidata.org/entity/Q7843791;;http://www.wikidata.org/entity/Q23891584
Australia;http://www.wikidata.org/entity/Q408;Croatia;http://www.wikidata.org/entity/Q224;Croatia;http://www.wikidata.org/entity/Q224;Zagreb;http://www.wikidata.org/entity/Q1435;;;;;;http://croatia.embassy.gov.au/;;;;;;;;embassy;http://www.wikidata.org/entity/Q3917681;;http://www.wikidata.org/entity/Q23891585
Australia;http://www.wikidata.org/entity/Q408;;;Cyprus;http://www.wikidata.org/entity/Q229;Nicosia;http://www.wikidata.org/entity/Q3856;;;;;;http://cyprus.embassy.gov.au/;;;;;;;;Australian High Commission;http://www.wikidata.org/entity/Q4824242;;http://www.wikidata.org/entity/Q23891607
Australia;http://www.wikidata.org/entity/Q408;;;Czech Republic;http://www.wikidata.org/entity/Q213;Prague;http://www.wikidata.org/entity/Q1085;;;;;;;;;;http://commons.wikimedia.org/wiki/Special:FilePath/Klimentska%2010%20Nove%20Mesto%20Praha%206382.jpg;Krokodyl;CC BY-SA 3.0;https://creativecommons.org/licenses/by-sa/3.0;consulate;http://www.wikidata.org/entity/Q7843791;;http://www.wikidata.org/entity/Q23891673
Australia;http://www.wikidata.org/entity/Q408;Denmark;http://www.wikidata.org/entity/Q35;Danish Realm;http://www.wikidata.org/entity/Q756617;Copenhagen Municipality;http://www.wikidata.org/entity/Q504125;;55.699838888;12.595755555;;;http://denmark.embassy.gov.au/;;;;;;;;embassy;http://www.wikidata.org/entity/Q3917681;;http://www.wikidata.org/entity/Q23891913
Australia;http://www.wikidata.org/entity/Q408;;;Djibouti;http://www.wikidata.org/entity/Q977;Djibouti;http://www.wikidata.org/entity/Q3604;;;;;;;;;;;;;;honorary consulate;http://www.wikidata.org/entity/Q23891529;;http://www.wikidata.org/entity/Q23891962
Australia;http://www.wikidata.org/entity/Q408;;;Ecuador;http://www.wikidata.org/entity/Q736;Guayaquil;http://www.wikidata.org/entity/Q43509;;;;;;;;;;;;;;consulate;http://www.wikidata.org/entity/Q7843791;;http://www.wikidata.org/entity/Q23892040
Australia;http://www.wikidata.org/entity/Q408;Egypt;http://www.wikidata.org/entity/Q79;Egypt;http://www.wikidata.org/entity/Q79;Bulaq;http://www.wikidata.org/entity/Q1003523;;;;;;http://egypt.embassy.gov.au/;;;;;;;;embassy;http://www.wikidata.org/entity/Q3917681;;http://www.wikidata.org/entity/Q23892112
Australia;http://www.wikidata.org/entity/Q408;;;El Salvador;http://www.wikidata.org/entity/Q792;San Salvador;http://www.wikidata.org/entity/Q3110;;;;;;;;;;;;;;consulate;http://www.wikidata.org/entity/Q7843791;;http://www.wikidata.org/entity/Q23892151
Australia;http://www.wikidata.org/entity/Q408;;;Estonia;http://www.wikidata.org/entity/Q191;Tallinn City;http://www.wikidata.org/entity/Q4450503;;;;;;;;;;;;;;consulate;http://www.wikidata.org/entity/Q7843791;;http://www.wikidata.org/entity/Q23892162
Australia;http://www.wikidata.org/entity/Q408;Ethiopia;http://www.wikidata.org/entity/Q115;Ethiopia;http://www.wikidata.org/entity/Q115;Addis Ababa;http://www.wikidata.org/entity/Q3624;;8.996727;38.777415;;;http://ethiopia.embassy.gov.au/;;;;;;;;embassy;http://www.wikidata.org/entity/Q3917681;;http://www.wikidata.org/entity/Q23892184
Australia;http://www.wikidata.org/entity/Q408;;;France;http://www.wikidata.org/entity/Q142;Noumea;http://www.wikidata.org/entity/Q9733;;;;;;http://www.australianconsulatenoumea.embassy.gov.au/nmeafrench/home.html;;;;;;;;consulate general;http://www.wikidata.org/entity/Q372690;;http://www.wikidata.org/entity/Q15973391
Australia;http://www.wikidata.org/entity/Q408;France|Monaco|Algeria|Chad|Mauritania;http://www.wikidata.org/entity/Q142|http://www.wikidata.org/entity/Q235|http://www.wikidata.org/entity/Q262|http://www.wikidata.org/entity/Q657|http://www.wikidata.org/entity/Q1025;France;http://www.wikidata.org/entity/Q142;Paris;http://www.wikidata.org/entity/Q90;;48.85513889;2.29013889;;;http://www.france.embassy.gov.au;;;;http://commons.wikimedia.org/wiki/Special:FilePath/AustralianEmbassyParis.jpg;Russell Yarwood;CC BY-SA 2.0;https://creativecommons.org/licenses/by-sa/2.0;embassy;http://www.wikidata.org/entity/Q3917681;;http://www.wikidata.org/entity/Q2841585
Australia;http://www.wikidata.org/entity/Q408;Switzerland|Germany|Liechtenstein;http://www.wikidata.org/entity/Q39|http://www.wikidata.org/entity/Q183|http://www.wikidata.org/entity/Q347;Germany;http://www.wikidata.org/entity/Q183;Mitte;http://www.wikidata.org/entity/Q163966;;52.5123;13.4094;;;https://germany.embassy.gov.au;;;;http://commons.wikimedia.org/wiki/Special:FilePath/Berlin%2C%20Mitte%2C%20Wallstrasse%2C%20Australische%20Botschaft.jpg;Jörg Zägel;CC BY-SA 3.0;https://creativecommons.org/licenses/by-sa/3.0;embassy;http://www.wikidata.org/entity/Q3917681;;http://www.wikidata.org/entity/Q782851
Australia;http://www.wikidata.org/entity/Q408;;;Hong Kong;http://www.wikidata.org/entity/Q8646;Hong Kong;http://www.wikidata.org/entity/Q8646;;;;;;http://china.embassy.gov.au/hkng/home.html;;;;;;;;consulate general;http://www.wikidata.org/entity/Q372690;1946-01-01T00:00:00Z;http://www.wikidata.org/entity/Q24189777
Australia;http://www.wikidata.org/entity/Q408;Indonesia;http://www.wikidata.org/entity/Q252;Indonesia;http://www.wikidata.org/entity/Q252;Jakarta;http://www.wikidata.org/entity/Q3630;;-6.232083;106.834139;;;;;;;http://commons.wikimedia.org/wiki/Special:FilePath/Australian%20Embassy%20Jakarta%20new.jpg;Australian Embassy Jakarta;CC BY 2.0;https://creativecommons.org/licenses/by/2.0;embassy;http://www.wikidata.org/entity/Q3917681;;http://www.wikidata.org/entity/Q48734360
Australia;http://www.wikidata.org/entity/Q408;;;Indonesia;http://www.wikidata.org/entity/Q252;Surabaya;http://www.wikidata.org/entity/Q11462;;;;;;;;;;http://commons.wikimedia.org/wiki/Special:FilePath/ESA%20Sampoerna%20Center%2C%20Surabaya%20%282018-08-18%29.jpg;consigliere ivan;CC BY 2.0;https://creativecommons.org/licenses/by/2.0;consulate general;http://www.wikidata.org/entity/Q372690;;http://www.wikidata.org/entity/Q63585840
Australia;http://www.wikidata.org/entity/Q408;Iran;http://www.wikidata.org/entity/Q794;Iran;http://www.wikidata.org/entity/Q794;Tehran;http://www.wikidata.org/entity/Q3616;;;;;;http://www.iran.embassy.gov.au/;AustraliaInIran;;;;;;;embassy;http://www.wikidata.org/entity/Q3917681;;http://www.wikidata.org/entity/Q25425121
Australia;http://www.wikidata.org/entity/Q408;Ireland;http://www.wikidata.org/entity/Q27;Ireland;http://www.wikidata.org/entity/Q27;Dublin;http://www.wikidata.org/entity/Q1761;;53.3376;-6.2558;;;https://ireland.embassy.gov.au/;;;;http://commons.wikimedia.org/wiki/Special:FilePath/Australian%20Embassy%20Dublin.jpg;Davekern;CC BY-SA 4.0;https://creativecommons.org/licenses/by-sa/4.0;embassy;http://www.wikidata.org/entity/Q3917681;1964-01-01T00:00:00Z;http://www.wikidata.org/entity/Q104761773
Australia;http://www.wikidata.org/entity/Q408;Italy|Albania|San Marino|Libya;http://www.wikidata.org/entity/Q38|http://www.wikidata.org/entity/Q222|http://www.wikidata.org/entity/Q238|http://www.wikidata.org/entity/Q1016;Italy;http://www.wikidata.org/entity/Q38;Rome;http://www.wikidata.org/entity/Q220;;41.9168;12.5139;;;https://italy.embassy.gov.au;;;;;;;;embassy;http://www.wikidata.org/entity/Q3917681;;http://www.wikidata.org/entity/Q102883205
Australia;http://www.wikidata.org/entity/Q408;Vatican City;http://www.wikidata.org/entity/Q237;Italy;http://www.wikidata.org/entity/Q38;Rome;http://www.wikidata.org/entity/Q220;;41.9005;12.4654;;;https://holysee.embassy.gov.au/;;;;;;;;embassy;http://www.wikidata.org/entity/Q3917681;;http://www.wikidata.org/entity/Q104037695
Australia;http://www.wikidata.org/entity/Q408;;;Japan;http://www.wikidata.org/entity/Q17;Fukuoka;http://www.wikidata.org/entity/Q26600;;;;;;;;;;http://commons.wikimedia.org/wiki/Special:FilePath/Australian%20Consulate-General%20Fukuoka.JPG;Nissy-KITAQ;CC BY-SA 3.0;https://creativecommons.org/licenses/by-sa/3.0;consulate general;http://www.wikidata.org/entity/Q372690;;http://www.wikidata.org/entity/Q55984198
Australia;http://www.wikidata.org/entity/Q408;;;Japan;http://www.wikidata.org/entity/Q17;Nagoya;http://www.wikidata.org/entity/Q11751;;;;;;;;;;http://commons.wikimedia.org/wiki/Special:FilePath/Asahi%20Shimbun%20Nagoya%20Office.jpg;Wideangle;CC-BY-SA-3.0;http://creativecommons.org/licenses/by-sa/3.0/;consulate;http://www.wikidata.org/entity/Q7843791;;http://www.wikidata.org/entity/Q78965948
Australia;http://www.wikidata.org/entity/Q408;;;Japan;http://www.wikidata.org/entity/Q17;Sapporo;http://www.wikidata.org/entity/Q37951;;43.066722222;141.346111111;;;;;;;http://commons.wikimedia.org/wiki/Special:FilePath/Sapporo%20Center%20Building.jpg;Ozizo;Public domain;;consulate;http://www.wikidata.org/entity/Q7843791;;http://www.wikidata.org/entity/Q56009880
Australia;http://www.wikidata.org/entity/Q408;;;Japan;http://www.wikidata.org/entity/Q17;Sendai;http://www.wikidata.org/entity/Q46747;;;;;;;;;;http://commons.wikimedia.org/wiki/Special:FilePath/Aoba%20Dori%20Plaza.JPG;広瀬川;Public domain;;consulate;http://www.wikidata.org/entity/Q7843791;;http://www.wikidata.org/entity/Q79384906
Australia;http://www.wikidata.org/entity/Q408;Japan;http://www.wikidata.org/entity/Q17;Japan;http://www.wikidata.org/entity/Q17;Tokyo;http://www.wikidata.org/entity/Q1490;;35.6515;139.739333;;;http://japan.embassy.gov.au/tkyo/home.html;AustraliaInJPN;australiainjpn;;http://commons.wikimedia.org/wiki/Special:FilePath/AustralianEmbassy.jpg;麒麟坊;CC BY-SA 3.0;https://creativecommons.org/licenses/by-sa/3.0;embassy;http://www.wikidata.org/entity/Q3917681;;http://www.wikidata.org/entity/Q11668251
Australia;http://www.wikidata.org/entity/Q408;;;Japan;http://www.wikidata.org/entity/Q17;Ōsaka;http://www.wikidata.org/entity/Q35765;;34.692722222;135.531444444;;;;;;;http://commons.wikimedia.org/wiki/Special:FilePath/TWIN21%20in%20201409.JPG;Mc681;CC BY-SA 4.0;https://creativecommons.org/licenses/by-sa/4.0;consulate general;http://www.wikidata.org/entity/Q372690;;http://www.wikidata.org/entity/Q55971902
Australia;http://www.wikidata.org/entity/Q408;Myanmar;http://www.wikidata.org/entity/Q836;Myanmar;http://www.wikidata.org/entity/Q836;Yangon;http://www.wikidata.org/entity/Q37995;;;;;;http://myanmar.embassy.gov.au/;;;;;;;;embassy;http://www.wikidata.org/entity/Q3917681;;http://www.wikidata.org/entity/Q23891551
Australia;http://www.wikidata.org/entity/Q408;Netherlands;http://www.wikidata.org/entity/Q55;Netherlands;http://www.wikidata.org/entity/Q55;The Hague;http://www.wikidata.org/entity/Q36600;;52.0852;4.2938;;;http://www.netherlands.embassy.gov.au;;;;http://commons.wikimedia.org/wiki/Special:FilePath/Embassies%20of%20Australia%20and%20Malta%20in%20The%20Hague%202010.jpg;Chrischerf;Public domain;;embassy;http://www.wikidata.org/entity/Q3917681;;http://www.wikidata.org/entity/Q100552538
Australia;http://www.wikidata.org/entity/Q408;Pakistan;http://www.wikidata.org/entity/Q843;Pakistan;http://www.wikidata.org/entity/Q843;Islamabad;http://www.wikidata.org/entity/Q1362;;33.723249;73.102178;;;http://pakistan.embassy.gov.au/;;;;;;;;Australian High Commission;http://www.wikidata.org/entity/Q4824242;;http://www.wikidata.org/entity/Q29026938
Australia;http://www.wikidata.org/entity/Q408;People's Republic of China;http://www.wikidata.org/entity/Q148;People's Republic of China;http://www.wikidata.org/entity/Q148;Beijing;http://www.wikidata.org/entity/Q956;;39.9406;116.4415;;;http://china.embassy.gov.au/;;;;;;;;embassy;http://www.wikidata.org/entity/Q3917681;;http://www.wikidata.org/entity/Q23891566
Australia;http://www.wikidata.org/entity/Q408;;;People's Republic of China;http://www.wikidata.org/entity/Q148;Chengdu;http://www.wikidata.org/entity/Q30002;;;;;;http://chengdu.china.embassy.gov.au/;;;;;;;;consulate general;http://www.wikidata.org/entity/Q372690;;http://www.wikidata.org/entity/Q23891744
Australia;http://www.wikidata.org/entity/Q408;;;People's Republic of China;http://www.wikidata.org/entity/Q148;Guangzhou;http://www.wikidata.org/entity/Q16572;;;;;;http://guangzhou.china.embassy.gov.au/;;;;;;;;consulate general;http://www.wikidata.org/entity/Q372690;;http://www.wikidata.org/entity/Q23891776
