operator;operatorQID;jurisdictions;jurisdictionQIDs;country;countryQID;city;cityQID;latitude;longitude;phone;email;website;facebook;twitter;youtube;picture;pictureAuthor;pictureLicense;pictureLicenseURL;type;typeQID;creation;QID
Guatemala;http://www.wikidata.org/entity/Q774;Argentina|Paraguay;http://www.wikidata.org/entity/Q414|http://www.wikidata.org/entity/Q733;Argentina;http://www.wikidata.org/entity/Q414;Buenos Aires;http://www.wikidata.org/entity/Q1486;-34.59767;-58.37561;;;https://argentina.minex.gob.gt;EmbaGuateArgentina;;;;;;;embassy;http://www.wikidata.org/entity/Q3917681;;http://www.wikidata.org/entity/Q110271911
Guatemala;http://www.wikidata.org/entity/Q774;Australia|New Zealand;http://www.wikidata.org/entity/Q408|http://www.wikidata.org/entity/Q664;Australia;http://www.wikidata.org/entity/Q408;Canberra;http://www.wikidata.org/entity/Q3114;-35.30841;149.13298;;;https://australia.minex.gob.gt;embassyofguatemala;;;;;;;embassy;http://www.wikidata.org/entity/Q3917681;;http://www.wikidata.org/entity/Q106463480
Guatemala;http://www.wikidata.org/entity/Q774;Hungary|Austria|Czech Republic|Slovakia|Slovenia|Romania;http://www.wikidata.org/entity/Q28|http://www.wikidata.org/entity/Q40|http://www.wikidata.org/entity/Q213|http://www.wikidata.org/entity/Q214|http://www.wikidata.org/entity/Q215|http://www.wikidata.org/entity/Q218;Austria;http://www.wikidata.org/entity/Q40;Vienna;http://www.wikidata.org/entity/Q1741;48.1955;16.3762;;;;;;;http://commons.wikimedia.org/wiki/Special:FilePath/Wien-Prinz-Eugen-Str-18.jpg;SchiDD>SchiDD</a>;CC BY-SA 4.0;https://creativecommons.org/licenses/by-sa/4.0;embassy;http://www.wikidata.org/entity/Q3917681;;http://www.wikidata.org/entity/Q104630541
Guatemala;http://www.wikidata.org/entity/Q774;Belgium|Luxembourg;http://www.wikidata.org/entity/Q31|http://www.wikidata.org/entity/Q32;Belgium;http://www.wikidata.org/entity/Q31;Uccle;http://www.wikidata.org/entity/Q203312;50.8111;4.3627;;;;;;;http://commons.wikimedia.org/wiki/Special:FilePath/Night%20view%20in%20Brussels.jpg;GdML>GdML</a>;CC BY-SA 4.0;https://creativecommons.org/licenses/by-sa/4.0;embassy;http://www.wikidata.org/entity/Q3917681;;http://www.wikidata.org/entity/Q69518605
Guatemala;http://www.wikidata.org/entity/Q774;Brazil;http://www.wikidata.org/entity/Q155;Brazil;http://www.wikidata.org/entity/Q155;Brasília;http://www.wikidata.org/entity/Q2844;-15.85416;-47.91166;;;https://brasil.minex.gob.gt;;;;;;;;embassy;http://www.wikidata.org/entity/Q3917681;;http://www.wikidata.org/entity/Q105702877
Guatemala;http://www.wikidata.org/entity/Q774;Canada;http://www.wikidata.org/entity/Q16;Canada;http://www.wikidata.org/entity/Q16;Ottawa;http://www.wikidata.org/entity/Q1930;45.4212;-75.6972;;;https://canada.minex.gob.gt;embajadaguatecanada;;;;;;;embassy;http://www.wikidata.org/entity/Q3917681;;http://www.wikidata.org/entity/Q5369707
Guatemala;http://www.wikidata.org/entity/Q774;Chile;http://www.wikidata.org/entity/Q298;Chile;http://www.wikidata.org/entity/Q298;Las Condes;http://www.wikidata.org/entity/Q14484;-33.41279;-70.57977;;;;EmbaGuateChile;;;;;;;embassy;http://www.wikidata.org/entity/Q3917681;;http://www.wikidata.org/entity/Q110416070
Guatemala;http://www.wikidata.org/entity/Q774;Colombia;http://www.wikidata.org/entity/Q739;Colombia;http://www.wikidata.org/entity/Q739;Bogotá;http://www.wikidata.org/entity/Q2841;4.67071;-74.05321;;;;embajadaguatemaltecaencolombia;;;;;;;embassy;http://www.wikidata.org/entity/Q3917681;;http://www.wikidata.org/entity/Q110874435
Guatemala;http://www.wikidata.org/entity/Q774;Costa Rica;http://www.wikidata.org/entity/Q800;Costa Rica;http://www.wikidata.org/entity/Q800;San José;http://www.wikidata.org/entity/Q3070;9.93225;-84.10791;;;;EmbaGuateCostaRica;;;;;;;embassy;http://www.wikidata.org/entity/Q3917681;;http://www.wikidata.org/entity/Q111080431
Guatemala;http://www.wikidata.org/entity/Q774;Ecuador;http://www.wikidata.org/entity/Q736;Ecuador;http://www.wikidata.org/entity/Q736;Quito;http://www.wikidata.org/entity/Q2900;-0.17599;-78.48726;;;;guateenecuador;;;;;;;embassy;http://www.wikidata.org/entity/Q3917681;;http://www.wikidata.org/entity/Q110749176
Guatemala;http://www.wikidata.org/entity/Q774;Portugal|France|Monaco;http://www.wikidata.org/entity/Q45|http://www.wikidata.org/entity/Q142|http://www.wikidata.org/entity/Q235;France;http://www.wikidata.org/entity/Q142;Paris;http://www.wikidata.org/entity/Q90;48.8795;2.2944;;;https://francia.minex.gob.gt;;;;http://commons.wikimedia.org/wiki/Special:FilePath/Avenue%20des%20Ternes%20vs%20Rue%20Villebois-Mareuil%20%28Paris%29.jpg;Tangopaso>Tangopaso</a>;Public domain;;embassy;http://www.wikidata.org/entity/Q3917681;;http://www.wikidata.org/entity/Q20669716
Guatemala;http://www.wikidata.org/entity/Q774;Poland|Germany|Estonia|Ukraine|Liechtenstein;http://www.wikidata.org/entity/Q36|http://www.wikidata.org/entity/Q183|http://www.wikidata.org/entity/Q191|http://www.wikidata.org/entity/Q212|http://www.wikidata.org/entity/Q347;Germany;http://www.wikidata.org/entity/Q183;Berlin;http://www.wikidata.org/entity/Q64;52.5192;13.3557;;;http://www.botschaft-guatemala.de/;;;;http://commons.wikimedia.org/wiki/Special:FilePath/Salvadorian%20Embassy%2C%20Berlin.jpg;Shisma>Shisma</a>;CC BY-SA 3.0;https://creativecommons.org/licenses/by-sa/3.0;embassy;http://www.wikidata.org/entity/Q3917681;1933-01-01T00:00:00Z;http://www.wikidata.org/entity/Q24944365
Guatemala;http://www.wikidata.org/entity/Q774;India|Nepal|Sri Lanka|Bangladesh;http://www.wikidata.org/entity/Q668|http://www.wikidata.org/entity/Q837|http://www.wikidata.org/entity/Q854|http://www.wikidata.org/entity/Q902;India;http://www.wikidata.org/entity/Q668;New Delhi;http://www.wikidata.org/entity/Q987;28.5509;77.1729;;;;;;;;;;;embassy;http://www.wikidata.org/entity/Q3917681;;http://www.wikidata.org/entity/Q112440080
Guatemala;http://www.wikidata.org/entity/Q774;Indonesia|Malaysia;http://www.wikidata.org/entity/Q252|http://www.wikidata.org/entity/Q833;Indonesia;http://www.wikidata.org/entity/Q252;Jakarta;http://www.wikidata.org/entity/Q3630;-6.2153;106.8204;;;;;;;;;;;embassy;http://www.wikidata.org/entity/Q3917681;;http://www.wikidata.org/entity/Q107578838
Guatemala;http://www.wikidata.org/entity/Q774;Bulgaria|Cyprus|Israel;http://www.wikidata.org/entity/Q219|http://www.wikidata.org/entity/Q229|http://www.wikidata.org/entity/Q801;Israel;http://www.wikidata.org/entity/Q801;Jerusalem;http://www.wikidata.org/entity/Q1218;31.75005;35.18664;;;;EmbaGuateIsrael;;;;;;;embassy;http://www.wikidata.org/entity/Q3917681;;http://www.wikidata.org/entity/Q109780306
Guatemala;http://www.wikidata.org/entity/Q774;Greece|Malta|Vatican City|Sovereign Military Order of Malta;http://www.wikidata.org/entity/Q41|http://www.wikidata.org/entity/Q233|http://www.wikidata.org/entity/Q237|http://www.wikidata.org/entity/Q190353;Italy;http://www.wikidata.org/entity/Q38;Rome;http://www.wikidata.org/entity/Q220;41.8987;12.4738;;;;;;;;;;;embassy;http://www.wikidata.org/entity/Q3917681;;http://www.wikidata.org/entity/Q56338586
Guatemala;http://www.wikidata.org/entity/Q774;Italy|Montenegro|San Marino|Serbia;http://www.wikidata.org/entity/Q38|http://www.wikidata.org/entity/Q236|http://www.wikidata.org/entity/Q238|http://www.wikidata.org/entity/Q403;Italy;http://www.wikidata.org/entity/Q38;Rome;http://www.wikidata.org/entity/Q220;41.9123;12.4749;;;;;;;;;;;embassy;http://www.wikidata.org/entity/Q3917681;;http://www.wikidata.org/entity/Q103830614
Guatemala;http://www.wikidata.org/entity/Q774;Japan|Singapore|Iraq|Philippines;http://www.wikidata.org/entity/Q17|http://www.wikidata.org/entity/Q334|http://www.wikidata.org/entity/Q796|http://www.wikidata.org/entity/Q928;Japan;http://www.wikidata.org/entity/Q17;Higashi-Azabu;http://www.wikidata.org/entity/Q11528788;;;;;;Embajada.Guatemala.en.Japon;EmbajadaGt_Jap;;http://commons.wikimedia.org/wiki/Special:FilePath/Embassy%20of%20Guatemala%20in%20Tokyo.jpg;Syced>Syced</a>;CC0;http://creativecommons.org/publicdomain/zero/1.0/deed.en;embassy;http://www.wikidata.org/entity/Q3917681;;http://www.wikidata.org/entity/Q62042923
Guatemala;http://www.wikidata.org/entity/Q774;Mexico;http://www.wikidata.org/entity/Q96;Mexico;http://www.wikidata.org/entity/Q96;Mexico City;http://www.wikidata.org/entity/Q1489;19.41757;-99.21298;;;;;;;http://commons.wikimedia.org/wiki/Special:FilePath/Embajada%20de%20Guatemala%20en%20Mexico.jpg;Aquintero82>Aquintero82</a>;CC BY-SA 4.0;https://creativecommons.org/licenses/by-sa/4.0;embassy;http://www.wikidata.org/entity/Q3917681;;http://www.wikidata.org/entity/Q111669332
Guatemala;http://www.wikidata.org/entity/Q774;South Africa|Morocco;http://www.wikidata.org/entity/Q258|http://www.wikidata.org/entity/Q1028;Morocco;http://www.wikidata.org/entity/Q1028;Rabat;http://www.wikidata.org/entity/Q3551;33.9582;-6.8355;;;https://www.marruecos.minex.gob.gt;EmbaguateMarruecos;;;;;;;embassy;http://www.wikidata.org/entity/Q3917681;;http://www.wikidata.org/entity/Q106675779
Guatemala;http://www.wikidata.org/entity/Q774;Netherlands;http://www.wikidata.org/entity/Q55;Netherlands;http://www.wikidata.org/entity/Q55;The Hague;http://www.wikidata.org/entity/Q36600;52.084;4.3015;;;;;;;;;;;embassy;http://www.wikidata.org/entity/Q3917681;;http://www.wikidata.org/entity/Q100700791
Guatemala;http://www.wikidata.org/entity/Q774;Peru|Bolivia;http://www.wikidata.org/entity/Q419|http://www.wikidata.org/entity/Q750;Peru;http://www.wikidata.org/entity/Q419;Jesús María;http://www.wikidata.org/entity/Q2723643;-12.08401;-77.04958;;;https://peru.minex.gob.gt;;;;;;;;embassy;http://www.wikidata.org/entity/Q3917681;;http://www.wikidata.org/entity/Q110667863
Guatemala;http://www.wikidata.org/entity/Q774;Russia|Belarus|Moldova|Kazakhstan|Armenia;http://www.wikidata.org/entity/Q159|http://www.wikidata.org/entity/Q184|http://www.wikidata.org/entity/Q217|http://www.wikidata.org/entity/Q232|http://www.wikidata.org/entity/Q399;Russia;http://www.wikidata.org/entity/Q159;Moscow;http://www.wikidata.org/entity/Q649;55.72875;37.61633333;;;http://www.embaguate.ru;;;;;;;;embassy;http://www.wikidata.org/entity/Q3917681;;http://www.wikidata.org/entity/Q4373987
Guatemala;http://www.wikidata.org/entity/Q774;Spain|Andorra;http://www.wikidata.org/entity/Q29|http://www.wikidata.org/entity/Q228;Spain;http://www.wikidata.org/entity/Q29;Madrid;http://www.wikidata.org/entity/Q2807;40.46085;-3.689126;;;https://embajadaguatemala.es/;;;;;;;;embassy;http://www.wikidata.org/entity/Q3917681;;http://www.wikidata.org/entity/Q105239404
Guatemala;http://www.wikidata.org/entity/Q774;Norway|Finland|Sweden|Denmark|Lithuania|Latvia;http://www.wikidata.org/entity/Q20|http://www.wikidata.org/entity/Q33|http://www.wikidata.org/entity/Q34|http://www.wikidata.org/entity/Q35|http://www.wikidata.org/entity/Q37|http://www.wikidata.org/entity/Q211;Sweden;http://www.wikidata.org/entity/Q34;Stockholm;http://www.wikidata.org/entity/Q1754;59.3312;18.0483;;;;;;;;;;;embassy;http://www.wikidata.org/entity/Q3917681;;http://www.wikidata.org/entity/Q18290281
Guatemala;http://www.wikidata.org/entity/Q774;Taiwan;http://www.wikidata.org/entity/Q865;Taiwan;http://www.wikidata.org/entity/Q865;Taipei;http://www.wikidata.org/entity/Q1867;25.117222222;121.524111111;;;http://www.taiwan.minex.gob.gt/;1649408381943404;;;;;;;embassy;http://www.wikidata.org/entity/Q3917681;;http://www.wikidata.org/entity/Q89042220
Guatemala;http://www.wikidata.org/entity/Q774;Turkey|Azerbaijan|Georgia|Qatar;http://www.wikidata.org/entity/Q43|http://www.wikidata.org/entity/Q227|http://www.wikidata.org/entity/Q230|http://www.wikidata.org/entity/Q846;Turkey;http://www.wikidata.org/entity/Q43;Ankara;http://www.wikidata.org/entity/Q3640;39.89376;32.86757;;;;;;;;;;;embassy;http://www.wikidata.org/entity/Q3917681;;http://www.wikidata.org/entity/Q110972502
Guatemala;http://www.wikidata.org/entity/Q774;Republic of Ireland|Kenya|Ethiopia|Ghana|United Kingdom|Oman|Zimbabwe|Zambia|Equatorial Guinea|Ivory Coast|Mauritius|Mozambique|Nigeria|Senegal;http://www.wikidata.org/entity/Q27|http://www.wikidata.org/entity/Q114|http://www.wikidata.org/entity/Q115|http://www.wikidata.org/entity/Q117|http://www.wikidata.org/entity/Q145|http://www.wikidata.org/entity/Q842|http://www.wikidata.org/entity/Q954|http://www.wikidata.org/entity/Q953|http://www.wikidata.org/entity/Q983|http://www.wikidata.org/entity/Q1008|http://www.wikidata.org/entity/Q1027|http://www.wikidata.org/entity/Q1029|http://www.wikidata.org/entity/Q1033|http://www.wikidata.org/entity/Q1041;United Kingdom;http://www.wikidata.org/entity/Q145;London;http://www.wikidata.org/entity/Q84;51.51511538;-0.193503866;;;;;;;http://commons.wikimedia.org/wiki/Special:FilePath/Guatemalan%20Embassy%2C%20London.jpg;Simon Burchell>Simon Burchell</a>;CC BY-SA 3.0;https://creativecommons.org/licenses/by-sa/3.0;embassy;http://www.wikidata.org/entity/Q3917681;;http://www.wikidata.org/entity/Q16982846
Guatemala;http://www.wikidata.org/entity/Q774;United States of America;http://www.wikidata.org/entity/Q30;United States of America;http://www.wikidata.org/entity/Q30;Washington, D.C.;http://www.wikidata.org/entity/Q61;38.9122;-77.0494;;;http://guatemalaembassyusa.org/;;;;http://commons.wikimedia.org/wiki/Special:FilePath/Embassy%20of%20Guatemala%2C%20Washington%2C%20D.C..jpg;SimonP>SimonP</a> at <a href=https://en.wikipedia.org/wiki/ class=extiw title=wikipedia:>English Wikipedia</a>;CC-BY-SA-3.0;http://creativecommons.org/licenses/by-sa/3.0/;embassy;http://www.wikidata.org/entity/Q3917681;;http://www.wikidata.org/entity/Q5369708
Guatemala;http://www.wikidata.org/entity/Q774;Uruguay;http://www.wikidata.org/entity/Q77;Uruguay;http://www.wikidata.org/entity/Q77;Montevideo;http://www.wikidata.org/entity/Q1335;-34.88209;-56.04557;;;;;;;;;;;embassy;http://www.wikidata.org/entity/Q3917681;;http://www.wikidata.org/entity/Q110492358
Guinea;http://www.wikidata.org/entity/Q1006;;;Algeria;http://www.wikidata.org/entity/Q262;Algiers;http://www.wikidata.org/entity/Q3561;;;;;;;;;;;;;embassy;http://www.wikidata.org/entity/Q3917681;;http://www.wikidata.org/entity/Q109016758
Guinea;http://www.wikidata.org/entity/Q1006;;;Angola;http://www.wikidata.org/entity/Q916;;;-8.8093346;13.2490368;;;;;;;;;;;embassy;http://www.wikidata.org/entity/Q3917681;;http://www.wikidata.org/entity/Q111207227
Guinea;http://www.wikidata.org/entity/Q1006;Belgium|Luxembourg;http://www.wikidata.org/entity/Q31|http://www.wikidata.org/entity/Q32;Belgium;http://www.wikidata.org/entity/Q31;Schaerbeek - Schaarbeek;http://www.wikidata.org/entity/Q12887;50.8485;4.4033;;;;;;;;;;;embassy;http://www.wikidata.org/entity/Q3917681;;http://www.wikidata.org/entity/Q69519834
Guinea;http://www.wikidata.org/entity/Q1006;Brazil|Chile|Paraguay;http://www.wikidata.org/entity/Q155|http://www.wikidata.org/entity/Q298|http://www.wikidata.org/entity/Q733;Brazil;http://www.wikidata.org/entity/Q155;Brasília;http://www.wikidata.org/entity/Q2844;-15.84615;-47.89059;;;;;;;;;;;embassy;http://www.wikidata.org/entity/Q3917681;;http://www.wikidata.org/entity/Q105703260
Guinea;http://www.wikidata.org/entity/Q1006;Canada;http://www.wikidata.org/entity/Q16;Canada;http://www.wikidata.org/entity/Q16;Ottawa;http://www.wikidata.org/entity/Q1930;45.43022;-75.67487;;;https://ambaguinee-ca.com;;;;http://commons.wikimedia.org/wiki/Special:FilePath/Guinea%2C%20Ottawa.jpg;SimonP>SimonP</a> at <a href=https://en.wikipedia.org/wiki/ class=extiw title=wikipedia:>English Wikipedia</a>;CC-BY-SA-3.0;http://creativecommons.org/licenses/by-sa/3.0/;embassy;http://www.wikidata.org/entity/Q3917681;1980-01-01T00:00:00Z;http://www.wikidata.org/entity/Q106776533
Guinea;http://www.wikidata.org/entity/Q1006;Mexico|Cuba|Panama;http://www.wikidata.org/entity/Q96|http://www.wikidata.org/entity/Q241|http://www.wikidata.org/entity/Q804;Cuba;http://www.wikidata.org/entity/Q241;Playa;http://www.wikidata.org/entity/Q2066897;23.12168;-82.42031;;;;;;;;;;;embassy;http://www.wikidata.org/entity/Q3917681;;http://www.wikidata.org/entity/Q109178411
Guinea;http://www.wikidata.org/entity/Q1006;Egypt|Cyprus;http://www.wikidata.org/entity/Q79|http://www.wikidata.org/entity/Q229;Egypt;http://www.wikidata.org/entity/Q79;Giza;http://www.wikidata.org/entity/Q81788;30.0698;31.2217;;;;Ambassade-de-Guinée-au-Caire-1530473600498986;;;;;;;embassy;http://www.wikidata.org/entity/Q3917681;;http://www.wikidata.org/entity/Q109780484
Guinea;http://www.wikidata.org/entity/Q1006;;;Equatorial Guinea;http://www.wikidata.org/entity/Q983;;;3.7519006;8.7731526;;;;;;;;;;;embassy;http://www.wikidata.org/entity/Q3917681;;http://www.wikidata.org/entity/Q111207231
Guinea;http://www.wikidata.org/entity/Q1006;;;Ethiopia;http://www.wikidata.org/entity/Q115;;;9.0050983;38.7893533;;;;;;;;;;;embassy;http://www.wikidata.org/entity/Q3917681;;http://www.wikidata.org/entity/Q111207229
Guinea;http://www.wikidata.org/entity/Q1006;Portugal|France|Israel;http://www.wikidata.org/entity/Q45|http://www.wikidata.org/entity/Q142|http://www.wikidata.org/entity/Q801;France;http://www.wikidata.org/entity/Q142;Paris;http://www.wikidata.org/entity/Q90;48.869;2.27622;;;https://fr.ambaguinee.org/;;;;http://commons.wikimedia.org/wiki/Special:FilePath/Guinean%20embassy%20in%20Paris.jpg;Pymouss44>Pymouss</a>;CC BY-SA 4.0;https://creativecommons.org/licenses/by-sa/4.0;embassy;http://www.wikidata.org/entity/Q3917681;;http://www.wikidata.org/entity/Q16303658
Guinea;http://www.wikidata.org/entity/Q1006;Germany|Czech Republic|Vatican City|Norway|Sweden|Poland|Denmark|Austria;http://www.wikidata.org/entity/Q183|http://www.wikidata.org/entity/Q213|http://www.wikidata.org/entity/Q237|http://www.wikidata.org/entity/Q20|http://www.wikidata.org/entity/Q34|http://www.wikidata.org/entity/Q36|http://www.wikidata.org/entity/Q35|http://www.wikidata.org/entity/Q40;Germany;http://www.wikidata.org/entity/Q183;Berlin;http://www.wikidata.org/entity/Q64;52.514;13.3874;;;http://www.amba-guinee.de/;;;;http://commons.wikimedia.org/wiki/Special:FilePath/Berlin%20-%20Botschaften%20von%20Guinea%20und%20Rwanda%2020191028.jpg;Pymouss>Pymouss</a>;CC BY-SA 4.0;https://creativecommons.org/licenses/by-sa/4.0;embassy;http://www.wikidata.org/entity/Q3917681;;http://www.wikidata.org/entity/Q60855260
Guinea;http://www.wikidata.org/entity/Q1006;;;Ghana;http://www.wikidata.org/entity/Q117;;;5.5571096;-0.2012376;;;;;;;;;;;embassy;http://www.wikidata.org/entity/Q3917681;;http://www.wikidata.org/entity/Q111207210
Guinea;http://www.wikidata.org/entity/Q1006;;;Guinea-Bissau;http://www.wikidata.org/entity/Q1007;;;11.861324;-15.583055;;;;;;;;;;;embassy;http://www.wikidata.org/entity/Q3917681;;http://www.wikidata.org/entity/Q111207233
Guinea;http://www.wikidata.org/entity/Q1006;;;India;http://www.wikidata.org/entity/Q668;;;28.5606906;77.1607907;;;;;;;;;;;embassy;http://www.wikidata.org/entity/Q3917681;;http://www.wikidata.org/entity/Q111207235
Guinea;http://www.wikidata.org/entity/Q1006;India;http://www.wikidata.org/entity/Q668;India;http://www.wikidata.org/entity/Q668;New Delhi;http://www.wikidata.org/entity/Q987;28.56757;77.16276;;;https://www.ambaguineedelhi.com/;;;;;;;;embassy;http://www.wikidata.org/entity/Q3917681;;http://www.wikidata.org/entity/Q112596254
Guinea;http://www.wikidata.org/entity/Q1006;Iran;http://www.wikidata.org/entity/Q794;Iran;http://www.wikidata.org/entity/Q794;Tehran;http://www.wikidata.org/entity/Q3616;35.7174;51.4398;;;;;;;;;;;embassy;http://www.wikidata.org/entity/Q3917681;;http://www.wikidata.org/entity/Q111207237
Guinea;http://www.wikidata.org/entity/Q1006;Italy|Greece;http://www.wikidata.org/entity/Q38|http://www.wikidata.org/entity/Q41;Italy;http://www.wikidata.org/entity/Q38;Rome;http://www.wikidata.org/entity/Q220;41.9294;12.4944;;;;;;;;;;;embassy;http://www.wikidata.org/entity/Q3917681;;http://www.wikidata.org/entity/Q103831026
Guinea;http://www.wikidata.org/entity/Q1006;Ivory Coast;http://www.wikidata.org/entity/Q1008;Ivory Coast;http://www.wikidata.org/entity/Q1008;Abidjan;http://www.wikidata.org/entity/Q1515;5.35728;-3.98987;;;;;;;;;;;embassy;http://www.wikidata.org/entity/Q3917681;;http://www.wikidata.org/entity/Q110712665
Guinea;http://www.wikidata.org/entity/Q1006;Japan|Australia|New Zealand;http://www.wikidata.org/entity/Q17|http://www.wikidata.org/entity/Q408|http://www.wikidata.org/entity/Q664;Japan;http://www.wikidata.org/entity/Q17;Tokyo;http://www.wikidata.org/entity/Q1490;35.651739;139.696725;;;;ambaguitokyo;;;http://commons.wikimedia.org/wiki/Special:FilePath/%E3%82%AE%E3%83%8B%E3%82%A2%E5%A4%A7%E4%BD%BF%E9%A4%A8%E5%85%A8%E6%99%AF.jpg;Senkaku Islands>Senkaku Islands</a>;CC BY-SA 4.0;https://creativecommons.org/licenses/by-sa/4.0;embassy;http://www.wikidata.org/entity/Q3917681;;http://www.wikidata.org/entity/Q61877262
Guinea;http://www.wikidata.org/entity/Q1006;;;Kuwait;http://www.wikidata.org/entity/Q817;;;29.26917;47.97806;;;;;;;;;;;embassy;http://www.wikidata.org/entity/Q3917681;;http://www.wikidata.org/entity/Q111207215
Guinea;http://www.wikidata.org/entity/Q1006;Liberia;http://www.wikidata.org/entity/Q1014;Liberia;http://www.wikidata.org/entity/Q1014;Monrovia;http://www.wikidata.org/entity/Q3748;6.28735;-10.77114;;;;;;;;;;;embassy;http://www.wikidata.org/entity/Q3917681;;http://www.wikidata.org/entity/Q110843600
Guinea;http://www.wikidata.org/entity/Q1006;Malta|Libya;http://www.wikidata.org/entity/Q233|http://www.wikidata.org/entity/Q1016;Libya;http://www.wikidata.org/entity/Q1016;Tripoli;http://www.wikidata.org/entity/Q3579;32.8691;13.121;;;;;;;;;;;embassy;http://www.wikidata.org/entity/Q3917681;;http://www.wikidata.org/entity/Q107735965
Guinea;http://www.wikidata.org/entity/Q1006;Indonesia|Malaysia;http://www.wikidata.org/entity/Q252|http://www.wikidata.org/entity/Q833;Malaysia;http://www.wikidata.org/entity/Q833;Kuala Lumpur;http://www.wikidata.org/entity/Q1865;3.1562;101.7422;;;;;;;;;;;embassy;http://www.wikidata.org/entity/Q3917681;;http://www.wikidata.org/entity/Q107578986
Guinea;http://www.wikidata.org/entity/Q1006;Mali;http://www.wikidata.org/entity/Q912;Mali;http://www.wikidata.org/entity/Q912;Bamako;http://www.wikidata.org/entity/Q3703;12.614410555;-7.959288055;;;;;;;;;;;embassy;http://www.wikidata.org/entity/Q3917681;;http://www.wikidata.org/entity/Q110710334
Guinea;http://www.wikidata.org/entity/Q1006;Morocco;http://www.wikidata.org/entity/Q1028;Morocco;http://www.wikidata.org/entity/Q1028;;;33.9931172;-6.8438306;;;;;;;;;;;embassy;http://www.wikidata.org/entity/Q3917681;;http://www.wikidata.org/entity/Q110694909
Guinea;http://www.wikidata.org/entity/Q1006;;;Nigeria;http://www.wikidata.org/entity/Q1033;;;6.4550575;3.3941795;;;;;;;;;;;embassy;http://www.wikidata.org/entity/Q3917681;;http://www.wikidata.org/entity/Q111207219
Guinea;http://www.wikidata.org/entity/Q1006;People's Republic of China;http://www.wikidata.org/entity/Q148;People's Republic of China;http://www.wikidata.org/entity/Q148;Beijing;http://www.wikidata.org/entity/Q956;39.9426;116.445;;;;;;;;;;;embassy;http://www.wikidata.org/entity/Q3917681;;http://www.wikidata.org/entity/Q100278111
Guinea;http://www.wikidata.org/entity/Q1006;;;Qatar;http://www.wikidata.org/entity/Q846;;;25.27932;51.52245;;;;;;;;;;;embassy;http://www.wikidata.org/entity/Q3917681;;http://www.wikidata.org/entity/Q111207223
Guinea;http://www.wikidata.org/entity/Q1006;Finland|Lithuania|Russia|Latvia|Estonia|Moldova;http://www.wikidata.org/entity/Q33|http://www.wikidata.org/entity/Q37|http://www.wikidata.org/entity/Q159|http://www.wikidata.org/entity/Q211|http://www.wikidata.org/entity/Q191|http://www.wikidata.org/entity/Q217;Russia;http://www.wikidata.org/entity/Q159;Moscow;http://www.wikidata.org/entity/Q649;55.72875;37.61633333;;;;Ambassade-De-Guinée-Moscou-Russie-628997013915529;;;http://commons.wikimedia.org/wiki/Special:FilePath/Koroviy%20val%207.jpg;Amo4kin>Amo4kin</a>;Public domain;;embassy;http://www.wikidata.org/entity/Q3917681;;http://www.wikidata.org/entity/Q4373988
Guinea;http://www.wikidata.org/entity/Q1006;Saudi Arabia;http://www.wikidata.org/entity/Q851;Saudi Arabia;http://www.wikidata.org/entity/Q851;Riyadh;http://www.wikidata.org/entity/Q3692;24.684;46.632;;;;;;;;;;;embassy;http://www.wikidata.org/entity/Q3917681;;http://www.wikidata.org/entity/Q68170003
Guinea;http://www.wikidata.org/entity/Q1006;;;Senegal;http://www.wikidata.org/entity/Q1041;;;14.709566;-17.470852;;;;;;;;;;;embassy;http://www.wikidata.org/entity/Q3917681;;http://www.wikidata.org/entity/Q111207225
Guinea;http://www.wikidata.org/entity/Q1006;Romania|Bulgaria|Albania|Montenegro|Serbia;http://www.wikidata.org/entity/Q218|http://www.wikidata.org/entity/Q219|http://www.wikidata.org/entity/Q222|http://www.wikidata.org/entity/Q236|http://www.wikidata.org/entity/Q403;Serbia;http://www.wikidata.org/entity/Q403;Belgrade;http://www.wikidata.org/entity/Q3711;44.79924;20.46675;;;;;;;;;;;embassy;http://www.wikidata.org/entity/Q3917681;;http://www.wikidata.org/entity/Q106875940
Guinea;http://www.wikidata.org/entity/Q1006;;;Sierra Leone;http://www.wikidata.org/entity/Q1044;;;8.467297;-13.2378785;;;;;;;;;;;embassy;http://www.wikidata.org/entity/Q3917681;;http://www.wikidata.org/entity/Q111207239
Guinea;http://www.wikidata.org/entity/Q1006;South Africa;http://www.wikidata.org/entity/Q258;South Africa;http://www.wikidata.org/entity/Q258;Pretoria;http://www.wikidata.org/entity/Q3926;-25.74805;28.22532;;;;;;;http://commons.wikimedia.org/wiki/Special:FilePath/Guinean%20Embassy%20in%20Pretoria.JPG;Kransky>Kransky</a>;CC BY-SA 3.0;https://creativecommons.org/licenses/by-sa/3.0;embassy;http://www.wikidata.org/entity/Q3917681;;http://www.wikidata.org/entity/Q106674065
Guinea;http://www.wikidata.org/entity/Q1006;Spain|Malta;http://www.wikidata.org/entity/Q29|http://www.wikidata.org/entity/Q233;Spain;http://www.wikidata.org/entity/Q29;Madrid;http://www.wikidata.org/entity/Q2807;40.4487;-3.6882;;;https://guineamadrid.es/;;;;http://commons.wikimedia.org/wiki/Special:FilePath/Embajada%20de%20Guinea%2C%20Madrid.jpg;Jorgecft>Jorgecft</a>;CC BY-SA 4.0;https://creativecommons.org/licenses/by-sa/4.0;embassy;http://www.wikidata.org/entity/Q3917681;;http://www.wikidata.org/entity/Q105241304
Guinea;http://www.wikidata.org/entity/Q1006;Switzerland;http://www.wikidata.org/entity/Q39;Switzerland;http://www.wikidata.org/entity/Q39;Geneva;http://www.wikidata.org/entity/Q71;46.2171;6.1462;;;;;;;;;;;embassy;http://www.wikidata.org/entity/Q3917681;;http://www.wikidata.org/entity/Q100983657
Guinea;http://www.wikidata.org/entity/Q1006;Turkey;http://www.wikidata.org/entity/Q43;Turkey;http://www.wikidata.org/entity/Q43;Ankara;http://www.wikidata.org/entity/Q3640;39.89701;32.87945;;;;;;;;;;;embassy;http://www.wikidata.org/entity/Q3917681;;http://www.wikidata.org/entity/Q110820392
Guinea;http://www.wikidata.org/entity/Q1006;Republic of Ireland|United Kingdom|Iceland;http://www.wikidata.org/entity/Q27|http://www.wikidata.org/entity/Q145|http://www.wikidata.org/entity/Q189;United Kingdom;http://www.wikidata.org/entity/Q145;London;http://www.wikidata.org/entity/Q84;51.5378;-0.191889;;;https://embassyofguinea.org.uk/;;;;http://commons.wikimedia.org/wiki/Special:FilePath/Embassy%20of%20Guinea%2C%20London.jpg;Sdrawkcab>Sdrawkcab</a>;CC BY-SA 3.0;https://creativecommons.org/licenses/by-sa/3.0;embassy;http://www.wikidata.org/entity/Q3917681;;http://www.wikidata.org/entity/Q16964416
Guinea;http://www.wikidata.org/entity/Q1006;United States of America;http://www.wikidata.org/entity/Q30;United States of America;http://www.wikidata.org/entity/Q30;Washington, D.C.;http://www.wikidata.org/entity/Q61;38.9153;-77.0469;;;;;;;http://commons.wikimedia.org/wiki/Special:FilePath/Guinea-embassy-dc.jpg;Zarxos>Zarxos</a>;CC BY-SA 3.0;https://creativecommons.org/licenses/by-sa/3.0;embassy;http://www.wikidata.org/entity/Q3917681;;http://www.wikidata.org/entity/Q5369709
Guinea-Bissau;http://www.wikidata.org/entity/Q1007;Belgium|Luxembourg|Finland|Denmark|Switzerland|Serbia;http://www.wikidata.org/entity/Q31|http://www.wikidata.org/entity/Q32|http://www.wikidata.org/entity/Q33|http://www.wikidata.org/entity/Q35|http://www.wikidata.org/entity/Q39|http://www.wikidata.org/entity/Q403;Belgium;http://www.wikidata.org/entity/Q31;Woluwe-Saint-Lambert - Sint-Lambrechts-Woluwe;http://www.wikidata.org/entity/Q211764;50.8429;4.4066;;;;;;;;;;;embassy;http://www.wikidata.org/entity/Q3917681;;http://www.wikidata.org/entity/Q69521213
Guinea-Bissau;http://www.wikidata.org/entity/Q1007;Brazil;http://www.wikidata.org/entity/Q155;Brazil;http://www.wikidata.org/entity/Q155;Brasília;http://www.wikidata.org/entity/Q2844;-15.84962;-47.85819;;;https://embaguibrasil.blogspot.com/;;;;;;;;embassy;http://www.wikidata.org/entity/Q3917681;2011-01-01T00:00:00Z;http://www.wikidata.org/entity/Q105703443
Guinea-Bissau;http://www.wikidata.org/entity/Q1007;Cape Verde;http://www.wikidata.org/entity/Q1011;Cape Verde;http://www.wikidata.org/entity/Q1011;Praia;http://www.wikidata.org/entity/Q3751;14.90978;-23.52971;;;;Embaixada-da-Guiné-Bissau-em-Cabo-Verde-367772850380426;;;;;;;embassy;http://www.wikidata.org/entity/Q3917681;2021-02-15T00:00:00Z;http://www.wikidata.org/entity/Q106314438
Guinea-Bissau;http://www.wikidata.org/entity/Q1007;Cuba|Panama;http://www.wikidata.org/entity/Q241|http://www.wikidata.org/entity/Q804;Cuba;http://www.wikidata.org/entity/Q241;Havana;http://www.wikidata.org/entity/Q1563;23.10538;-82.44203;;;;Embaixada-da-Guiné-Bissau-em-Cuba-101437301926882;;;;;;;embassy;http://www.wikidata.org/entity/Q3917681;;http://www.wikidata.org/entity/Q111130515
Guinea-Bissau;http://www.wikidata.org/entity/Q1007;France|Vatican City;http://www.wikidata.org/entity/Q142|http://www.wikidata.org/entity/Q237;France;http://www.wikidata.org/entity/Q142;Paris;http://www.wikidata.org/entity/Q90;48.8758;2.32808;;;https://ambaguineebxo.com;;;;;;;;embassy;http://www.wikidata.org/entity/Q3917681;;http://www.wikidata.org/entity/Q16303662
Guinea-Bissau;http://www.wikidata.org/entity/Q1007;Germany|Czech Republic;http://www.wikidata.org/entity/Q183|http://www.wikidata.org/entity/Q213;Germany;http://www.wikidata.org/entity/Q183;Berlin;http://www.wikidata.org/entity/Q64;52.5113;13.3875;;;http://www.botschaft-guinea-bissau-berlin.de/;;;;http://commons.wikimedia.org/wiki/Special:FilePath/Botschaft%20Guinea-Bissau%2C%20Berlin%20%282%29.jpg;Joehawkins>Joehawkins</a>;CC BY-SA 4.0;https://creativecommons.org/licenses/by-sa/4.0;embassy;http://www.wikidata.org/entity/Q3917681;;http://www.wikidata.org/entity/Q16782015
Guinea-Bissau;http://www.wikidata.org/entity/Q1007;;;Guinea;http://www.wikidata.org/entity/Q1006;;;9.55111885;-13.67301464;;;;;;;;;;;embassy;http://www.wikidata.org/entity/Q3917681;;http://www.wikidata.org/entity/Q111207244
Guinea-Bissau;http://www.wikidata.org/entity/Q1007;People's Republic of China;http://www.wikidata.org/entity/Q148;People's Republic of China;http://www.wikidata.org/entity/Q148;Beijing;http://www.wikidata.org/entity/Q956;39.943156;116.449183;;;;;;;;;;;embassy;http://www.wikidata.org/entity/Q3917681;;http://www.wikidata.org/entity/Q106438355
Guinea-Bissau;http://www.wikidata.org/entity/Q1007;Italy|Portugal;http://www.wikidata.org/entity/Q38|http://www.wikidata.org/entity/Q45;Portugal;http://www.wikidata.org/entity/Q45;Lisbon;http://www.wikidata.org/entity/Q597;38.7005;-9.2126;;;http://embaixadaguinebissau.pt/;;;;http://commons.wikimedia.org/wiki/Special:FilePath/Embaixada%20da%20Guin%C3%A9-Bissau%20em%20Lisboa%2001.jpg;Joehawkins>Joehawkins</a>;CC BY-SA 4.0;https://creativecommons.org/licenses/by-sa/4.0;embassy;http://www.wikidata.org/entity/Q3917681;;http://www.wikidata.org/entity/Q103831175
Guinea-Bissau;http://www.wikidata.org/entity/Q1007;Poland|Russia|Bulgaria;http://www.wikidata.org/entity/Q36|http://www.wikidata.org/entity/Q159|http://www.wikidata.org/entity/Q219;Russia;http://www.wikidata.org/entity/Q159;Moscow;http://www.wikidata.org/entity/Q649;55.6597;37.6104;;;;;;;http://commons.wikimedia.org/wiki/Special:FilePath/Moscow%2C%20Simferopolskiy%20boullevard%207A.JPG;Сергей Сазанков>Сергей Сазанков</a>;CC BY-SA 2.5;https://creativecommons.org/licenses/by-sa/2.5;embassy;http://www.wikidata.org/entity/Q3917681;;http://www.wikidata.org/entity/Q86675428
Guinea-Bissau;http://www.wikidata.org/entity/Q1007;Spain;http://www.wikidata.org/entity/Q29;Spain;http://www.wikidata.org/entity/Q29;Madrid;http://www.wikidata.org/entity/Q2807;40.4385;-3.675;;;;;;;;;;;embassy;http://www.wikidata.org/entity/Q3917681;;http://www.wikidata.org/entity/Q105241993
Guinea-Bissau;http://www.wikidata.org/entity/Q1007;Turkey;http://www.wikidata.org/entity/Q43;Turkey;http://www.wikidata.org/entity/Q43;Ankara;http://www.wikidata.org/entity/Q3640;39.8952;32.8763;;;;;;;;;;;embassy;http://www.wikidata.org/entity/Q3917681;2021-06-22T00:00:00Z;http://www.wikidata.org/entity/Q110972615
Guyana;http://www.wikidata.org/entity/Q734;Norway|Belgium|Sweden|Denmark|Portugal|Austria|Netherlands|Germany|Serbia;http://www.wikidata.org/entity/Q20|http://www.wikidata.org/entity/Q31|http://www.wikidata.org/entity/Q34|http://www.wikidata.org/entity/Q35|http://www.wikidata.org/entity/Q45|http://www.wikidata.org/entity/Q40|http://www.wikidata.org/entity/Q55|http://www.wikidata.org/entity/Q183|http://www.wikidata.org/entity/Q403;Belgium;http://www.wikidata.org/entity/Q31;Woluwe-Saint-Lambert - Sint-Lambrechts-Woluwe;http://www.wikidata.org/entity/Q211764;50.8429;4.4066;;;https://www.embassyofguyana.be;;;;;;;;embassy;http://www.wikidata.org/entity/Q3917681;;http://www.wikidata.org/entity/Q69522937
Guyana;http://www.wikidata.org/entity/Q734;Uruguay|Brazil|Chile|Peru|Paraguay;http://www.wikidata.org/entity/Q77|http://www.wikidata.org/entity/Q155|http://www.wikidata.org/entity/Q298|http://www.wikidata.org/entity/Q419|http://www.wikidata.org/entity/Q733;Brazil;http://www.wikidata.org/entity/Q155;Brasília;http://www.wikidata.org/entity/Q2844;-15.84788;-47.90111;;;http://embguyana.org.br/;;;;;;;;embassy;http://www.wikidata.org/entity/Q3917681;;http://www.wikidata.org/entity/Q105703119
Guyana;http://www.wikidata.org/entity/Q734;Canada|Australia;http://www.wikidata.org/entity/Q16|http://www.wikidata.org/entity/Q408;Canada;http://www.wikidata.org/entity/Q16;Ottawa;http://www.wikidata.org/entity/Q1930;45.4209;-75.6968;;;https://mission.gov.gy/ottawa;;;;;;;;high commission;http://www.wikidata.org/entity/Q18414273;;http://www.wikidata.org/entity/Q106463533
Guyana;http://www.wikidata.org/entity/Q734;Indonesia|India|Bangladesh|Sri Lanka;http://www.wikidata.org/entity/Q252|http://www.wikidata.org/entity/Q668|http://www.wikidata.org/entity/Q902|http://www.wikidata.org/entity/Q854;India;http://www.wikidata.org/entity/Q668;New Delhi;http://www.wikidata.org/entity/Q987;28.5654;77.1594;;;http://mission.gov.gy/newdelhi/;;;;;;;;high commission;http://www.wikidata.org/entity/Q18414273;;http://www.wikidata.org/entity/Q107579026
Guyana;http://www.wikidata.org/entity/Q734;People's Republic of China|New Zealand;http://www.wikidata.org/entity/Q148|http://www.wikidata.org/entity/Q664;People's Republic of China;http://www.wikidata.org/entity/Q148;Beijing;http://www.wikidata.org/entity/Q956;39.91464;116.443;;;http://www.guyanaembassybeijing.cn;;;;;;;;embassy;http://www.wikidata.org/entity/Q3917681;;http://www.wikidata.org/entity/Q111821527
Guyana;http://www.wikidata.org/entity/Q734;South Africa;http://www.wikidata.org/entity/Q258;South Africa;http://www.wikidata.org/entity/Q258;Pretoria;http://www.wikidata.org/entity/Q3926;-25.74401;28.23672;;;https://www.minfor.gov.gy/mission/south-africa/;;;;;;;;high commission;http://www.wikidata.org/entity/Q18414273;;http://www.wikidata.org/entity/Q106675004
Guyana;http://www.wikidata.org/entity/Q734;Suriname;http://www.wikidata.org/entity/Q730;Suriname;http://www.wikidata.org/entity/Q730;Paramaribo;http://www.wikidata.org/entity/Q3001;5.830555555;-55.158055555;;;;;;;;;;;embassy;http://www.wikidata.org/entity/Q3917681;;http://www.wikidata.org/entity/Q108510973
Guyana;http://www.wikidata.org/entity/Q734;Spain|Poland|Lithuania|France|United Kingdom|Russia|Iceland|Estonia|Latvia|Czech Republic|Slovakia|Romania|Bulgaria|Croatia|Montenegro|Vatican City;http://www.wikidata.org/entity/Q29|http://www.wikidata.org/entity/Q36|http://www.wikidata.org/entity/Q37|http://www.wikidata.org/entity/Q142|http://www.wikidata.org/entity/Q145|http://www.wikidata.org/entity/Q159|http://www.wikidata.org/entity/Q189|http://www.wikidata.org/entity/Q191|http://www.wikidata.org/entity/Q211|http://www.wikidata.org/entity/Q213|http://www.wikidata.org/entity/Q214|http://www.wikidata.org/entity/Q218|http://www.wikidata.org/entity/Q219|http://www.wikidata.org/entity/Q224|http://www.wikidata.org/entity/Q236|http://www.wikidata.org/entity/Q237;United Kingdom;http://www.wikidata.org/entity/Q145;City of Westminster;http://www.wikidata.org/entity/Q179351;51.5101;-0.191889;;;http://guyanahclondon.co.uk/;;;;http://commons.wikimedia.org/wiki/Special:FilePath/High%20Commission%20of%20Guyana%20in%20London%201.jpg;Sdrawkcab>Sdrawkcab</a>;CC BY-SA 3.0;https://creativecommons.org/licenses/by-sa/3.0;high commission;http://www.wikidata.org/entity/Q18414273;;http://www.wikidata.org/entity/Q16842985
Guyana;http://www.wikidata.org/entity/Q734;United States of America|Costa Rica;http://www.wikidata.org/entity/Q30|http://www.wikidata.org/entity/Q800;United States of America;http://www.wikidata.org/entity/Q30;Washington, D.C.;http://www.wikidata.org/entity/Q61;38.9167;-77.0556;;;;;;;http://commons.wikimedia.org/wiki/Special:FilePath/Guyana%2C%20Washington.JPG;SimonP>SimonP</a> at <a href=https://en.wikipedia.org/wiki/ class=extiw title=wikipedia:>English Wikipedia</a>.;CC-BY-SA-3.0;http://creativecommons.org/licenses/by-sa/3.0/;embassy;http://www.wikidata.org/entity/Q3917681;;http://www.wikidata.org/entity/Q5369710
Guyana;http://www.wikidata.org/entity/Q734;Venezuela|Ecuador;http://www.wikidata.org/entity/Q717|http://www.wikidata.org/entity/Q736;Venezuela;http://www.wikidata.org/entity/Q717;Caracas;http://www.wikidata.org/entity/Q1533;10.5103;-66.85461;;;;;;;;;;;embassy;http://www.wikidata.org/entity/Q3917681;;http://www.wikidata.org/entity/Q110749937
Haiti;http://www.wikidata.org/entity/Q790;Uruguay|Argentina;http://www.wikidata.org/entity/Q77|http://www.wikidata.org/entity/Q414;Argentina;http://www.wikidata.org/entity/Q414;Buenos Aires;http://www.wikidata.org/entity/Q1486;-34.57817;-58.40221;;;;;;;http://commons.wikimedia.org/wiki/Special:FilePath/Haitian%20Embassy%2C%20Buenos%20Aires%2001.jpg;Gastón Cuello>Gastón Cuello</a>;CC BY-SA 4.0;https://creativecommons.org/licenses/by-sa/4.0;embassy;http://www.wikidata.org/entity/Q3917681;;http://www.wikidata.org/entity/Q110271955
Haiti;http://www.wikidata.org/entity/Q790;Belgium|Luxembourg;http://www.wikidata.org/entity/Q31|http://www.wikidata.org/entity/Q32;Belgium;http://www.wikidata.org/entity/Q31;Saint-Gilles - Sint-Gillis;http://www.wikidata.org/entity/Q237674;50.8282;4.3552;;;;;;;;;;;embassy;http://www.wikidata.org/entity/Q3917681;;http://www.wikidata.org/entity/Q69523079
Haiti;http://www.wikidata.org/entity/Q790;Brazil;http://www.wikidata.org/entity/Q155;Brazil;http://www.wikidata.org/entity/Q155;Brasília;http://www.wikidata.org/entity/Q2844;-15.84954;-47.88623;;;http://ambassadehaitibresil.org;;;;;;;;embassy;http://www.wikidata.org/entity/Q3917681;;http://www.wikidata.org/entity/Q105703875
Haiti;http://www.wikidata.org/entity/Q790;Canada;http://www.wikidata.org/entity/Q16;Canada;http://www.wikidata.org/entity/Q16;Ottawa;http://www.wikidata.org/entity/Q1930;45.42212;-75.69584;;;http://ambassade-haiti.ca/;;EmbHaiti_ca;;;;;;embassy;http://www.wikidata.org/entity/Q3917681;;http://www.wikidata.org/entity/Q106776589
Haiti;http://www.wikidata.org/entity/Q790;Chile|Peru;http://www.wikidata.org/entity/Q298|http://www.wikidata.org/entity/Q419;Chile;http://www.wikidata.org/entity/Q298;Santiago commune;http://www.wikidata.org/entity/Q188002;-33.45544;-70.66658;;;https://embajadahaiti.cl/;;;;http://commons.wikimedia.org/wiki/Special:FilePath/Embajada%20de%20Haiti%20en%20Chile.jpg;Dintrans.g>Dintrans.g</a>;CC BY-SA 4.0;https://creativecommons.org/licenses/by-sa/4.0;embassy;http://www.wikidata.org/entity/Q3917681;;http://www.wikidata.org/entity/Q109350338
Haiti;http://www.wikidata.org/entity/Q790;Colombia;http://www.wikidata.org/entity/Q739;Colombia;http://www.wikidata.org/entity/Q739;Bogotá;http://www.wikidata.org/entity/Q2841;4.6781;-74.0448;;;;;;;;;;;embassy;http://www.wikidata.org/entity/Q3917681;;http://www.wikidata.org/entity/Q110755865
Haiti;http://www.wikidata.org/entity/Q790;Cuba;http://www.wikidata.org/entity/Q241;Cuba;http://www.wikidata.org/entity/Q241;Havana;http://www.wikidata.org/entity/Q1563;23.11332;-82.42964;;;;;;;;;;;embassy;http://www.wikidata.org/entity/Q3917681;;http://www.wikidata.org/entity/Q110751175
Haiti;http://www.wikidata.org/entity/Q790;Dominican Republic;http://www.wikidata.org/entity/Q786;Dominican Republic;http://www.wikidata.org/entity/Q786;Santo Domingo;http://www.wikidata.org/entity/Q34820;18.46439;-69.91056;;;;ambassade.dhaiti;;;;;;;embassy;http://www.wikidata.org/entity/Q3917681;;http://www.wikidata.org/entity/Q110754843
Haiti;http://www.wikidata.org/entity/Q790;Ecuador;http://www.wikidata.org/entity/Q736;Ecuador;http://www.wikidata.org/entity/Q736;Quito;http://www.wikidata.org/entity/Q2900;-0.18504;-78.47821;;;;;;;;;;;embassy;http://www.wikidata.org/entity/Q3917681;;http://www.wikidata.org/entity/Q79593957
Haiti;http://www.wikidata.org/entity/Q790;;;France;http://www.wikidata.org/entity/Q142;Cayenne;http://www.wikidata.org/entity/Q44401;;;;;;;;;;;;;consulate general;http://www.wikidata.org/entity/Q372690;;http://www.wikidata.org/entity/Q16543684
Haiti;http://www.wikidata.org/entity/Q790;Switzerland|France|Montenegro;http://www.wikidata.org/entity/Q39|http://www.wikidata.org/entity/Q142|http://www.wikidata.org/entity/Q236;France;http://www.wikidata.org/entity/Q142;Paris;http://www.wikidata.org/entity/Q90;48.8798;2.30048;;;;ambassadehaitifrance;;;http://commons.wikimedia.org/wiki/Special:FilePath/Embassy%20of%20Haiti%20in%20Paris.jpg;Antiguide de la ville;CC BY-SA 4.0;https://creativecommons.org/licenses/by-sa/4.0;embassy;http://www.wikidata.org/entity/Q3917681;;http://www.wikidata.org/entity/Q20051092
Haiti;http://www.wikidata.org/entity/Q790;;;France;http://www.wikidata.org/entity/Q142;Paris;http://www.wikidata.org/entity/Q90;48.8829;2.30855;;;;;;;http://commons.wikimedia.org/wiki/Special:FilePath/Consulat%20g%C3%A9n%C3%A9ral%20d%27Ha%C3%AFti%20en%20France%2C%2035%20avenue%20de%20Villiers%2C%20Paris%2017e.jpg;Celette>Celette</a>;CC BY-SA 4.0;https://creativecommons.org/licenses/by-sa/4.0;consulate general;http://www.wikidata.org/entity/Q372690;;http://www.wikidata.org/entity/Q16507558
Haiti;http://www.wikidata.org/entity/Q790;;;France;http://www.wikidata.org/entity/Q142;Pointe-à-Pitre;http://www.wikidata.org/entity/Q335322;;;;;;;;;;;;;consulate general;http://www.wikidata.org/entity/Q372690;;http://www.wikidata.org/entity/Q16543688
Haiti;http://www.wikidata.org/entity/Q790;Poland|Germany;http://www.wikidata.org/entity/Q36|http://www.wikidata.org/entity/Q183;Germany;http://www.wikidata.org/entity/Q183;Berlin;http://www.wikidata.org/entity/Q64;52.5051;13.3254;;;;;;;http://commons.wikimedia.org/wiki/Special:FilePath/Berlin%20-%20Botschaft%20von%20Haiti%2020191027-01.jpg;Pymouss>Pymouss</a>;CC BY-SA 4.0;https://creativecommons.org/licenses/by-sa/4.0;embassy;http://www.wikidata.org/entity/Q3917681;1933-01-01T00:00:00Z;http://www.wikidata.org/entity/Q25409440
Haiti;http://www.wikidata.org/entity/Q790;Vatican City;http://www.wikidata.org/entity/Q237;Italy;http://www.wikidata.org/entity/Q38;Rome;http://www.wikidata.org/entity/Q220;41.9093;12.5055;;;;;;;;;;;embassy;http://www.wikidata.org/entity/Q3917681;;http://www.wikidata.org/entity/Q60855299
Haiti;http://www.wikidata.org/entity/Q790;Italy;http://www.wikidata.org/entity/Q38;Italy;http://www.wikidata.org/entity/Q38;Rome;http://www.wikidata.org/entity/Q220;41.9093;12.5056;;;;;;;;;;;embassy;http://www.wikidata.org/entity/Q3917681;;http://www.wikidata.org/entity/Q103831937
Haiti;http://www.wikidata.org/entity/Q790;Japan;http://www.wikidata.org/entity/Q17;Japan;http://www.wikidata.org/entity/Q17;Minato-ku;http://www.wikidata.org/entity/Q190088;35.65919;139.721856;+81-3-3486-7096;;;ahaitijapon;AmbHaitiJapon;;http://commons.wikimedia.org/wiki/Special:FilePath/Haiti%20embassy%20in%20Tokyo.jpg;Syced>Syced</a>;CC0;http://creativecommons.org/publicdomain/zero/1.0/deed.en;embassy;http://www.wikidata.org/entity/Q3917681;;http://www.wikidata.org/entity/Q61911666
Haiti;http://www.wikidata.org/entity/Q790;Mexico;http://www.wikidata.org/entity/Q96;Mexico;http://www.wikidata.org/entity/Q96;Mexico City;http://www.wikidata.org/entity/Q1489;19.4111;-99.2302;;;;AmbassadeHaitiMexique;;;http://commons.wikimedia.org/wiki/Special:FilePath/Embajada%20de%20Hait%C3%AD%20en%20la%20Ciudad%20de%20M%C3%A9xico.jpg;Aquintero82>Aquintero82</a>;CC BY-SA 4.0;https://creativecommons.org/licenses/by-sa/4.0;embassy;http://www.wikidata.org/entity/Q3917681;;http://www.wikidata.org/entity/Q110754652
Haiti;http://www.wikidata.org/entity/Q790;Morocco;http://www.wikidata.org/entity/Q1028;Morocco;http://www.wikidata.org/entity/Q1028;Rabat;http://www.wikidata.org/entity/Q3551;33.9964;-6.8451;;;;;;;;;;;embassy;http://www.wikidata.org/entity/Q3917681;2020-12-12T00:00:00Z;http://www.wikidata.org/entity/Q110756871
Haiti;http://www.wikidata.org/entity/Q790;Panama;http://www.wikidata.org/entity/Q804;Panama;http://www.wikidata.org/entity/Q804;Panama City;http://www.wikidata.org/entity/Q3306;8.98618;-79.51539;;;;;;;;;;;embassy;http://www.wikidata.org/entity/Q3917681;;http://www.wikidata.org/entity/Q110756050
Haiti;http://www.wikidata.org/entity/Q790;Qatar;http://www.wikidata.org/entity/Q846;Qatar;http://www.wikidata.org/entity/Q846;Doha;http://www.wikidata.org/entity/Q3861;25.3492;51.5188;;;;HaitiEmbassyQatar;;;;;;;embassy;http://www.wikidata.org/entity/Q3917681;;http://www.wikidata.org/entity/Q110756847
Haiti;http://www.wikidata.org/entity/Q790;South Africa;http://www.wikidata.org/entity/Q258;South Africa;http://www.wikidata.org/entity/Q258;Pretoria;http://www.wikidata.org/entity/Q3926;-25.74019;28.22095;;;;EmbassyofHaitiSA;;;;;;;embassy;http://www.wikidata.org/entity/Q3917681;;http://www.wikidata.org/entity/Q106675008
Haiti;http://www.wikidata.org/entity/Q790;Spain;http://www.wikidata.org/entity/Q29;Spain;http://www.wikidata.org/entity/Q29;Madrid;http://www.wikidata.org/entity/Q2807;40.4282;-3.6903;;;;;;;http://commons.wikimedia.org/wiki/Special:FilePath/Edificio%20Castellana%2015%20%28Madrid%29%2001.jpg;Zaqarbal>Zaqarbal</a>);CC BY-SA 4.0;https://creativecommons.org/licenses/by-sa/4.0;embassy;http://www.wikidata.org/entity/Q3917681;;http://www.wikidata.org/entity/Q105233394
Haiti;http://www.wikidata.org/entity/Q790;Suriname;http://www.wikidata.org/entity/Q730;Suriname;http://www.wikidata.org/entity/Q730;Paramaribo;http://www.wikidata.org/entity/Q3001;5.826666666;-55.15325;;;;;;;;;;;consulate;http://www.wikidata.org/entity/Q7843791;;http://www.wikidata.org/entity/Q109887336
Haiti;http://www.wikidata.org/entity/Q790;Taiwan;http://www.wikidata.org/entity/Q865;Taiwan;http://www.wikidata.org/entity/Q865;Taipei;http://www.wikidata.org/entity/Q1867;25.117222222;121.524111111;;;;398676003522285;;;;;;;embassy;http://www.wikidata.org/entity/Q3917681;;http://www.wikidata.org/entity/Q89392028
Haiti;http://www.wikidata.org/entity/Q790;The Bahamas;http://www.wikidata.org/entity/Q778;The Bahamas;http://www.wikidata.org/entity/Q778;Nassau;http://www.wikidata.org/entity/Q2467;25.07446;-77.32953;;;;;;;;;;;embassy;http://www.wikidata.org/entity/Q3917681;;http://www.wikidata.org/entity/Q110751098
Haiti;http://www.wikidata.org/entity/Q790;United Kingdom;http://www.wikidata.org/entity/Q145;United Kingdom;http://www.wikidata.org/entity/Q145;London;http://www.wikidata.org/entity/Q84;51.5172;-0.144167;;;https://www.haitianembassy.co.uk/;;;;http://commons.wikimedia.org/wiki/Special:FilePath/Embassy%20of%20Haiti%2C%20London%201.jpg;Sdrawkcab>Sdrawkcab</a>;CC BY-SA 4.0;https://creativecommons.org/licenses/by-sa/4.0;embassy;http://www.wikidata.org/entity/Q3917681;;http://www.wikidata.org/entity/Q16983076
Haiti;http://www.wikidata.org/entity/Q790;United States of America;http://www.wikidata.org/entity/Q30;United States of America;http://www.wikidata.org/entity/Q30;Washington, D.C.;http://www.wikidata.org/entity/Q61;38.913115;-77.051348;;;;;;;http://commons.wikimedia.org/wiki/Special:FilePath/Embassy%20of%20Haiti%2C%20Washington%2C%20D.C..jpg;SimonP>SimonP</a> at <a href=https://en.wikipedia.org/wiki/ class=extiw title=wikipedia:>English Wikipedia</a>;CC-BY-SA-3.0;http://creativecommons.org/licenses/by-sa/3.0/;embassy;http://www.wikidata.org/entity/Q3917681;;http://www.wikidata.org/entity/Q12057110
Haiti;http://www.wikidata.org/entity/Q790;Venezuela;http://www.wikidata.org/entity/Q717;Venezuela;http://www.wikidata.org/entity/Q717;Caracas;http://www.wikidata.org/entity/Q1533;10.50807;-66.85255;;;http://www.ambassadehaitivenezuela.org/;;;;;;;;embassy;http://www.wikidata.org/entity/Q3917681;;http://www.wikidata.org/entity/Q110755471
Vatican;http://www.wikidata.org/entity/Q159583;Argentina;http://www.wikidata.org/entity/Q414;Argentina;http://www.wikidata.org/entity/Q414;Buenos Aires;http://www.wikidata.org/entity/Q1486;-34.589583333;-58.386138888;;;;;;;http://commons.wikimedia.org/wiki/Special:FilePath/CABA%20-%20Recoleta%20-%20Nunciatura%20de%20la%20ciudad%20de%20Buenos%20Aires.jpg;Loco085>Loco085</a>;CC BY-SA 3.0;https://creativecommons.org/licenses/by-sa/3.0;apostolic nunciature;http://www.wikidata.org/entity/Q620045;;http://www.wikidata.org/entity/Q89085851
Vatican;http://www.wikidata.org/entity/Q159583;Canada;http://www.wikidata.org/entity/Q16;Canada;http://www.wikidata.org/entity/Q16;Ottawa;http://www.wikidata.org/entity/Q1930;45.4557;-75.6831;;;http://nuntiatura.ca/fr/;;;;http://commons.wikimedia.org/wiki/Special:FilePath/Papal%20Nuncio%2C%20Ottawa.JPG;SimonP>SimonP</a> at <a href=https://en.wikipedia.org/wiki/ class=extiw title=wikipedia:>English Wikipedia</a>.;CC-BY-SA-3.0;http://creativecommons.org/licenses/by-sa/3.0/;apostolic nunciature;http://www.wikidata.org/entity/Q620045;;http://www.wikidata.org/entity/Q3343340
Vatican;http://www.wikidata.org/entity/Q159583;United States of America;http://www.wikidata.org/entity/Q30;United States of America;http://www.wikidata.org/entity/Q30;Washington, D.C.;http://www.wikidata.org/entity/Q61;;;;;http://www.nuntiususa.org/;;;;http://commons.wikimedia.org/wiki/Special:FilePath/ApostolicNunciatureWashingtonDC.jpg;Jonathunder>Jonathunder</a>;GFDL 1.2;http://www.gnu.org/licenses/old-licenses/fdl-1.2.html;apostolic nunciature;http://www.wikidata.org/entity/Q620045;;http://www.wikidata.org/entity/Q3019751
Vatican;http://www.wikidata.org/entity/Q159583;Vanuatu;http://www.wikidata.org/entity/Q686;Vanuatu;http://www.wikidata.org/entity/Q686;;;;;;;;;;;;;;;apostolic nunciature;http://www.wikidata.org/entity/Q620045;;http://www.wikidata.org/entity/Q12785034
Honduras;http://www.wikidata.org/entity/Q783;Uruguay|Argentina|Paraguay;http://www.wikidata.org/entity/Q77|http://www.wikidata.org/entity/Q414|http://www.wikidata.org/entity/Q733;Argentina;http://www.wikidata.org/entity/Q414;Buenos Aires;http://www.wikidata.org/entity/Q1486;-34.59552;-58.38041;;;http://www.embajadahonduras.com.ar;hondurasar2018;;;http://commons.wikimedia.org/wiki/Special:FilePath/Embajadahonduras.jpg;Gustavo Miguel Figueres>Gustavo Miguel Figueres</a>;CC BY-SA 4.0;https://creativecommons.org/licenses/by-sa/4.0;embassy;http://www.wikidata.org/entity/Q3917681;;http://www.wikidata.org/entity/Q110271977
Honduras;http://www.wikidata.org/entity/Q783;Austria;http://www.wikidata.org/entity/Q40;Austria;http://www.wikidata.org/entity/Q40;Vienna;http://www.wikidata.org/entity/Q1741;48.1975;16.3742;;;;;;;;;;;embassy;http://www.wikidata.org/entity/Q3917681;;http://www.wikidata.org/entity/Q104634158
Honduras;http://www.wikidata.org/entity/Q783;Latvia|Norway|Belgium|Finland|Luxembourg|Denmark|Sweden|Lithuania|Iceland|Estonia;http://www.wikidata.org/entity/Q211|http://www.wikidata.org/entity/Q20|http://www.wikidata.org/entity/Q31|http://www.wikidata.org/entity/Q33|http://www.wikidata.org/entity/Q32|http://www.wikidata.org/entity/Q35|http://www.wikidata.org/entity/Q34|http://www.wikidata.org/entity/Q37|http://www.wikidata.org/entity/Q189|http://www.wikidata.org/entity/Q191;Belgium;http://www.wikidata.org/entity/Q31;Brussels;http://www.wikidata.org/entity/Q239;50.8451;4.3904;;;;;;;;;;;embassy;http://www.wikidata.org/entity/Q3917681;;http://www.wikidata.org/entity/Q67526502
Honduras;http://www.wikidata.org/entity/Q783;Brazil;http://www.wikidata.org/entity/Q155;Brazil;http://www.wikidata.org/entity/Q155;Brasília;http://www.wikidata.org/entity/Q2844;-15.86631;-47.86789;;;http://embaixadahondurasbrasil.com/;;;;;;;;embassy;http://www.wikidata.org/entity/Q3917681;;http://www.wikidata.org/entity/Q105704078
Honduras;http://www.wikidata.org/entity/Q783;Canada;http://www.wikidata.org/entity/Q16;Canada;http://www.wikidata.org/entity/Q16;Ottawa;http://www.wikidata.org/entity/Q1930;45.421388888;-75.697222222;;;https://embajadahondurasencanada.hn;;;;;;;;embassy;http://www.wikidata.org/entity/Q3917681;;http://www.wikidata.org/entity/Q106776658
Honduras;http://www.wikidata.org/entity/Q783;Chile;http://www.wikidata.org/entity/Q298;Chile;http://www.wikidata.org/entity/Q298;Las Condes;http://www.wikidata.org/entity/Q14484;-33.41645;-70.60236;;;;Embajada.de.Honduras.en.Chile;;;;;;;embassy;http://www.wikidata.org/entity/Q3917681;;http://www.wikidata.org/entity/Q110427025
Honduras;http://www.wikidata.org/entity/Q783;Colombia;http://www.wikidata.org/entity/Q739;Colombia;http://www.wikidata.org/entity/Q739;Bogotá;http://www.wikidata.org/entity/Q2841;4.69945;-74.03903;;;https://www.embajadadehonduras.org.co;;;;http://commons.wikimedia.org/wiki/Special:FilePath/Embajada%20de%20Honduras%20en%20Bogota.jpg;Aquintero82>Aquintero82</a>;CC BY-SA 4.0;https://creativecommons.org/licenses/by-sa/4.0;embassy;http://www.wikidata.org/entity/Q3917681;;http://www.wikidata.org/entity/Q110874671
Honduras;http://www.wikidata.org/entity/Q783;Costa Rica;http://www.wikidata.org/entity/Q800;Costa Rica;http://www.wikidata.org/entity/Q800;San José;http://www.wikidata.org/entity/Q3070;9.9368;-84.1361;;;;embajadaHondurasenCR;;;;;;;embassy;http://www.wikidata.org/entity/Q3917681;;http://www.wikidata.org/entity/Q111089463
Honduras;http://www.wikidata.org/entity/Q783;Ecuador;http://www.wikidata.org/entity/Q736;Ecuador;http://www.wikidata.org/entity/Q736;Quito;http://www.wikidata.org/entity/Q2900;-0.1727;-78.4756;;;;;;;;;;;embassy;http://www.wikidata.org/entity/Q3917681;;http://www.wikidata.org/entity/Q110757350
Honduras;http://www.wikidata.org/entity/Q783;Portugal|France|Monaco;http://www.wikidata.org/entity/Q45|http://www.wikidata.org/entity/Q142|http://www.wikidata.org/entity/Q235;France;http://www.wikidata.org/entity/Q142;Paris;http://www.wikidata.org/entity/Q90;48.8713;2.28108;;;https://www.ambhonduras.fr/;;;;http://commons.wikimedia.org/wiki/Special:FilePath/Ambassade%2016e%20arrondissement%20de%20Paris.jpg;Celette>Celette</a>;CC BY-SA 3.0;https://creativecommons.org/licenses/by-sa/3.0;embassy;http://www.wikidata.org/entity/Q3917681;;http://www.wikidata.org/entity/Q20127465
Honduras;http://www.wikidata.org/entity/Q783;Poland|Turkey|Germany|Czech Republic|Romania;http://www.wikidata.org/entity/Q36|http://www.wikidata.org/entity/Q43|http://www.wikidata.org/entity/Q183|http://www.wikidata.org/entity/Q213|http://www.wikidata.org/entity/Q218;Germany;http://www.wikidata.org/entity/Q183;Berlin;http://www.wikidata.org/entity/Q64;52.5178;13.3383;;;http://www.embajada-honduras.de;;;;http://commons.wikimedia.org/wiki/Special:FilePath/Building%20in%20historicist%20style%20in%2010555%20Berlin-Hansaviertel%2C%20Cuxhavener%20Stra%C3%9Fe%2014.jpg;Vikki>Vikki</a>;CC BY-SA 3.0;https://creativecommons.org/licenses/by-sa/3.0;embassy;http://www.wikidata.org/entity/Q3917681;;http://www.wikidata.org/entity/Q72630734
Honduras;http://www.wikidata.org/entity/Q783;Cyprus|Israel;http://www.wikidata.org/entity/Q229|http://www.wikidata.org/entity/Q801;Israel;http://www.wikidata.org/entity/Q801;Jerusalem;http://www.wikidata.org/entity/Q1218;31.7501;35.1861;;;https://ehondurasisrael.net;;;;;;;;embassy;http://www.wikidata.org/entity/Q3917681;;http://www.wikidata.org/entity/Q107356102
Honduras;http://www.wikidata.org/entity/Q783;Vatican City|San Marino;http://www.wikidata.org/entity/Q237|http://www.wikidata.org/entity/Q238;Italy;http://www.wikidata.org/entity/Q38;Rome;http://www.wikidata.org/entity/Q220;41.9063;12.4615;;;;;;;;;;;embassy;http://www.wikidata.org/entity/Q3917681;;http://www.wikidata.org/entity/Q56338439
Honduras;http://www.wikidata.org/entity/Q783;Italy|Albania|Montenegro;http://www.wikidata.org/entity/Q38|http://www.wikidata.org/entity/Q222|http://www.wikidata.org/entity/Q236;Italy;http://www.wikidata.org/entity/Q38;Rome;http://www.wikidata.org/entity/Q220;41.914;12.4739;;;;;;;;;;;embassy;http://www.wikidata.org/entity/Q3917681;;http://www.wikidata.org/entity/Q103832222
Honduras;http://www.wikidata.org/entity/Q783;Japan;http://www.wikidata.org/entity/Q17;Japan;http://www.wikidata.org/entity/Q17;;;35.65919;139.721856;+81-3-3409-1150;mailto:info@hnembassyjp.com;https://hnembassyjp.wordpress.com/;honduras.embassy.tokyo;EmbajadaHN_JP;;http://commons.wikimedia.org/wiki/Special:FilePath/Plaque%20at%20entrance%20of%20building%20hosting%20several%20embassies%20in%20Nishia%21abu.jpg;Syced>Syced</a>;CC0;http://creativecommons.org/publicdomain/zero/1.0/deed.en;embassy;http://www.wikidata.org/entity/Q3917681;;http://www.wikidata.org/entity/Q61911680
Honduras;http://www.wikidata.org/entity/Q783;Mexico;http://www.wikidata.org/entity/Q96;Mexico;http://www.wikidata.org/entity/Q96;Mexico City;http://www.wikidata.org/entity/Q1489;19.40742;-99.17366;;;;EmbajadadeHondurasenMexico;;;http://commons.wikimedia.org/wiki/Special:FilePath/Embajada%20de%20Honduras%20en%20Ciudad%20de%20M%C3%A9xico.jpg;Aquintero82>Aquintero82</a>;CC BY-SA 4.0;https://creativecommons.org/licenses/by-sa/4.0;embassy;http://www.wikidata.org/entity/Q3917681;;http://www.wikidata.org/entity/Q111669561
Honduras;http://www.wikidata.org/entity/Q783;Panama;http://www.wikidata.org/entity/Q804;Panama;http://www.wikidata.org/entity/Q804;Panama City;http://www.wikidata.org/entity/Q3306;8.97594;-79.51937;;;https://www.embahn-panama.com;;;;;;;;embassy;http://www.wikidata.org/entity/Q3917681;;http://www.wikidata.org/entity/Q111107332
Honduras;http://www.wikidata.org/entity/Q783;Peru;http://www.wikidata.org/entity/Q419;Peru;http://www.wikidata.org/entity/Q419;San Isidro;http://www.wikidata.org/entity/Q2632912;-12.1076;-77.0559;;;https://embhondurasperu.com;;;;;;;;embassy;http://www.wikidata.org/entity/Q3917681;;http://www.wikidata.org/entity/Q110686538
Honduras;http://www.wikidata.org/entity/Q783;Russia;http://www.wikidata.org/entity/Q159;Russia;http://www.wikidata.org/entity/Q159;Moscow;http://www.wikidata.org/entity/Q649;55.72737;37.61644;;;;Embajada-de-Honduras-en-Moscú-Rusia-180973175749206;;;;;;;embassy;http://www.wikidata.org/entity/Q3917681;;http://www.wikidata.org/entity/Q110141798
Honduras;http://www.wikidata.org/entity/Q783;Spain;http://www.wikidata.org/entity/Q29;Spain;http://www.wikidata.org/entity/Q29;Madrid;http://www.wikidata.org/entity/Q2807;40.4592;-3.689;;;https://www.embajadahondurases.com/;;;;;;;;embassy;http://www.wikidata.org/entity/Q3917681;;http://www.wikidata.org/entity/Q105275262
Honduras;http://www.wikidata.org/entity/Q783;Switzerland;http://www.wikidata.org/entity/Q39;Switzerland;http://www.wikidata.org/entity/Q39;Geneva;http://www.wikidata.org/entity/Q71;46.22;6.1439;;;;;;;;;;;embassy;http://www.wikidata.org/entity/Q3917681;;http://www.wikidata.org/entity/Q101023546
Honduras;http://www.wikidata.org/entity/Q783;Taiwan;http://www.wikidata.org/entity/Q865;Taiwan;http://www.wikidata.org/entity/Q865;Taipei;http://www.wikidata.org/entity/Q1867;25.117222222;121.524111111;;;https://embajadahondurastw.wixsite.com/hnembassytw;EmbajadaHondurasTW;embhntw;;;;;;embassy;http://www.wikidata.org/entity/Q3917681;;http://www.wikidata.org/entity/Q88689598
Honduras;http://www.wikidata.org/entity/Q783;Republic of Ireland|United Kingdom;http://www.wikidata.org/entity/Q27|http://www.wikidata.org/entity/Q145;United Kingdom;http://www.wikidata.org/entity/Q145;London;http://www.wikidata.org/entity/Q84;51.5207;-0.159389;;;;;;;http://commons.wikimedia.org/wiki/Special:FilePath/Embassy%20of%20Honduras%20in%20London%201.jpg;Sdrawkcab>Sdrawkcab</a>;CC BY-SA 4.0;https://creativecommons.org/licenses/by-sa/4.0;embassy;http://www.wikidata.org/entity/Q3917681;;http://www.wikidata.org/entity/Q16947085
Honduras;http://www.wikidata.org/entity/Q783;United States of America;http://www.wikidata.org/entity/Q30;United States of America;http://www.wikidata.org/entity/Q30;Washington, D.C.;http://www.wikidata.org/entity/Q61;38.94138889;-77.06361111;;;;;;;;;;;embassy;http://www.wikidata.org/entity/Q3917681;;http://www.wikidata.org/entity/Q5369715
Palau;http://www.wikidata.org/entity/Q695;Belgium;http://www.wikidata.org/entity/Q31;Belgium;http://www.wikidata.org/entity/Q31;Brussels;http://www.wikidata.org/entity/Q239;50.8419;4.3838;;;;;;;;;;;embassy;http://www.wikidata.org/entity/Q3917681;;http://www.wikidata.org/entity/Q69899864
Palau;http://www.wikidata.org/entity/Q695;Japan;http://www.wikidata.org/entity/Q17;Japan;http://www.wikidata.org/entity/Q17;Tokyo;http://www.wikidata.org/entity/Q1490;35.656578;139.741358;;;;palauembassy.tokyo;PalauEmbassy;;http://commons.wikimedia.org/wiki/Special:FilePath/%E3%83%91%E3%83%A9%E3%82%AA%E5%A4%A7%E4%BD%BF%E9%A4%A8%E5%81%B4%E9%9D%A2.jpg;Senkaku Islands>Senkaku Islands</a>;CC BY-SA 4.0;https://creativecommons.org/licenses/by-sa/4.0;embassy;http://www.wikidata.org/entity/Q3917681;;http://www.wikidata.org/entity/Q59313885
Palau;http://www.wikidata.org/entity/Q695;Indonesia|Philippines;http://www.wikidata.org/entity/Q252|http://www.wikidata.org/entity/Q928;Philippines;http://www.wikidata.org/entity/Q928;Makati;http://www.wikidata.org/entity/Q1508;14.5599;121.0197;;;http://www.palauembassymanila.ph;;;;;;;;embassy;http://www.wikidata.org/entity/Q3917681;;http://www.wikidata.org/entity/Q107625301
Palau;http://www.wikidata.org/entity/Q695;Taiwan;http://www.wikidata.org/entity/Q865;Taiwan;http://www.wikidata.org/entity/Q865;Taipei;http://www.wikidata.org/entity/Q1867;25.117222222;121.524111111;;;;;;;;;;;embassy;http://www.wikidata.org/entity/Q3917681;;http://www.wikidata.org/entity/Q64514600
Palau;http://www.wikidata.org/entity/Q695;Canada|United States of America;http://www.wikidata.org/entity/Q16|http://www.wikidata.org/entity/Q30;United States of America;http://www.wikidata.org/entity/Q30;Washington, D.C.;http://www.wikidata.org/entity/Q61;38.8993;-77.0399;;;https://www.palauembassy.org;;;;;;;;embassy;http://www.wikidata.org/entity/Q3917681;;http://www.wikidata.org/entity/Q106820826
Panama;http://www.wikidata.org/entity/Q804;Argentina;http://www.wikidata.org/entity/Q414;Argentina;http://www.wikidata.org/entity/Q414;Buenos Aires;http://www.wikidata.org/entity/Q1486;-34.59558;-58.38798;;mailto:embpanamaargentina@mire.gob.pa;https://mire.gob.pa/ministerio/embajada-y-consulado/buenos-aires/;;;;;;;;embassy;http://www.wikidata.org/entity/Q3917681;;http://www.wikidata.org/entity/Q110300519
Panama;http://www.wikidata.org/entity/Q804;Peru;http://www.wikidata.org/entity/Q419;Argentina;http://www.wikidata.org/entity/Q414;San Isidro;http://www.wikidata.org/entity/Q2164117;-12.09102;-77.05088;;;http://www.panaembaperu.com.pe;;;;;;;;embassy;http://www.wikidata.org/entity/Q3917681;;http://www.wikidata.org/entity/Q110728720
Panama;http://www.wikidata.org/entity/Q804;Australia|New Zealand;http://www.wikidata.org/entity/Q408|http://www.wikidata.org/entity/Q664;Australia;http://www.wikidata.org/entity/Q408;Canberra;http://www.wikidata.org/entity/Q3114;-35.27162;149.12982;;;https://mire.gob.pa/ministerio/embajada-y-consulado/camberra/;;;;;;;;embassy;http://www.wikidata.org/entity/Q3917681;;http://www.wikidata.org/entity/Q106488680
Panama;http://www.wikidata.org/entity/Q804;Hungary|Austria|Slovakia|Croatia|Serbia|Kosovo;http://www.wikidata.org/entity/Q28|http://www.wikidata.org/entity/Q40|http://www.wikidata.org/entity/Q214|http://www.wikidata.org/entity/Q224|http://www.wikidata.org/entity/Q403|http://www.wikidata.org/entity/Q1246;Austria;http://www.wikidata.org/entity/Q40;Vienna;http://www.wikidata.org/entity/Q1741;48.2093;16.3703;;;;;;;;;;;embassy;http://www.wikidata.org/entity/Q3917681;;http://www.wikidata.org/entity/Q104642086
Panama;http://www.wikidata.org/entity/Q804;Belgium|Luxembourg|Slovenia;http://www.wikidata.org/entity/Q31|http://www.wikidata.org/entity/Q32|http://www.wikidata.org/entity/Q215;Belgium;http://www.wikidata.org/entity/Q31;Brussels;http://www.wikidata.org/entity/Q239;50.8172;4.3711;;;;;;;;;;;embassy;http://www.wikidata.org/entity/Q3917681;;http://www.wikidata.org/entity/Q69900872
Panama;http://www.wikidata.org/entity/Q804;Belize;http://www.wikidata.org/entity/Q242;Belize;http://www.wikidata.org/entity/Q242;Belize City;http://www.wikidata.org/entity/Q108223;17.51291;-88.21265;;;;;;;;;;;embassy;http://www.wikidata.org/entity/Q3917681;;http://www.wikidata.org/entity/Q111132303
Panama;http://www.wikidata.org/entity/Q804;Bolivia;http://www.wikidata.org/entity/Q750;Bolivia;http://www.wikidata.org/entity/Q750;La Paz;http://www.wikidata.org/entity/Q1491;-16.5399;-68.0894;;;https://mire.gob.pa/ministerio/embajada-y-consulado/bolivia-embajada-y-seccion-consular/;;;;;;;;embassy;http://www.wikidata.org/entity/Q3917681;;http://www.wikidata.org/entity/Q110589661
Panama;http://www.wikidata.org/entity/Q804;Brazil;http://www.wikidata.org/entity/Q155;Brazil;http://www.wikidata.org/entity/Q155;Brasília;http://www.wikidata.org/entity/Q2844;-15.80929;-47.87759;;;;;;;;;;;embassy;http://www.wikidata.org/entity/Q3917681;;http://www.wikidata.org/entity/Q105715949
Panama;http://www.wikidata.org/entity/Q804;Canada;http://www.wikidata.org/entity/Q16;Canada;http://www.wikidata.org/entity/Q16;Ottawa;http://www.wikidata.org/entity/Q1930;45.421388888;-75.697222222;;;https://embassyofpanama.ca/;;;;;;;;embassy;http://www.wikidata.org/entity/Q3917681;;http://www.wikidata.org/entity/Q106776698
Panama;http://www.wikidata.org/entity/Q804;Chile;http://www.wikidata.org/entity/Q298;Chile;http://www.wikidata.org/entity/Q298;Las Condes;http://www.wikidata.org/entity/Q14484;-33.4271;-70.56531;;;https://mire.gob.pa/ministerio/embajada-y-consulado/santiago-embajada-de-panama/;;;;;;;;embassy;http://www.wikidata.org/entity/Q3917681;;http://www.wikidata.org/entity/Q110482820
Panama;http://www.wikidata.org/entity/Q804;Colombia;http://www.wikidata.org/entity/Q739;Colombia;http://www.wikidata.org/entity/Q739;Bogotá;http://www.wikidata.org/entity/Q2841;4.67214;-74.04465;;;;;;;;;;;embassy;http://www.wikidata.org/entity/Q3917681;;http://www.wikidata.org/entity/Q110890856
Panama;http://www.wikidata.org/entity/Q804;Costa Rica;http://www.wikidata.org/entity/Q800;Costa Rica;http://www.wikidata.org/entity/Q800;San José;http://www.wikidata.org/entity/Q3070;9.92907;-84.04777;;;;;;;;;;;embassy;http://www.wikidata.org/entity/Q3917681;;http://www.wikidata.org/entity/Q111103006
Panama;http://www.wikidata.org/entity/Q804;Cuba;http://www.wikidata.org/entity/Q241;Cuba;http://www.wikidata.org/entity/Q241;Havana;http://www.wikidata.org/entity/Q1563;23.12123;-82.4218;;;;;;;;;;;embassy;http://www.wikidata.org/entity/Q3917681;;http://www.wikidata.org/entity/Q111133501
Panama;http://www.wikidata.org/entity/Q804;Dominican Republic;http://www.wikidata.org/entity/Q786;Dominican Republic;http://www.wikidata.org/entity/Q786;Santo Domingo;http://www.wikidata.org/entity/Q34820;18.44432;-69.96162;;;;;;;;;;;embassy;http://www.wikidata.org/entity/Q3917681;;http://www.wikidata.org/entity/Q111134299
Panama;http://www.wikidata.org/entity/Q804;Ecuador;http://www.wikidata.org/entity/Q736;Ecuador;http://www.wikidata.org/entity/Q736;Quito;http://www.wikidata.org/entity/Q2900;-0.18005;-78.47564;;;;;;;;;;;embassy;http://www.wikidata.org/entity/Q3917681;;http://www.wikidata.org/entity/Q110796691
Panama;http://www.wikidata.org/entity/Q804;Egypt;http://www.wikidata.org/entity/Q79;Egypt;http://www.wikidata.org/entity/Q79;Cairo;http://www.wikidata.org/entity/Q85;4.67214;-74.04465;;;;;;;;;;;embassy;http://www.wikidata.org/entity/Q3917681;;http://www.wikidata.org/entity/Q111133541
Panama;http://www.wikidata.org/entity/Q804;El Salvador;http://www.wikidata.org/entity/Q792;El Salvador;http://www.wikidata.org/entity/Q792;San Salvador;http://www.wikidata.org/entity/Q3110;13.6884;-89.2234;;;;;;;;;;;embassy;http://www.wikidata.org/entity/Q3917681;;http://www.wikidata.org/entity/Q111133596
Panama;http://www.wikidata.org/entity/Q804;;;France;http://www.wikidata.org/entity/Q142;Marseille;http://www.wikidata.org/entity/Q23482;43.2942;5.37462;;;;;;;http://commons.wikimedia.org/wiki/Special:FilePath/Consulat%20Panama%20Marseille.jpg;Shev123>Shev123</a>;CC0;http://creativecommons.org/publicdomain/zero/1.0/deed.en;consulate general;http://www.wikidata.org/entity/Q372690;;http://www.wikidata.org/entity/Q16507628
Panama;http://www.wikidata.org/entity/Q804;France|Monaco;http://www.wikidata.org/entity/Q142|http://www.wikidata.org/entity/Q235;France;http://www.wikidata.org/entity/Q142;Paris;http://www.wikidata.org/entity/Q90;48.8475;2.30853;;;https://embajadadepanamaenfrancia.fr;;;;http://commons.wikimedia.org/wiki/Special:FilePath/Panamanian%20embassy%20in%20Paris.jpg;Pymouss44>Pymouss</a>;CC BY-SA 3.0;https://creativecommons.org/licenses/by-sa/3.0;embassy;http://www.wikidata.org/entity/Q3917681;;http://www.wikidata.org/entity/Q20127467
Panama;http://www.wikidata.org/entity/Q804;Germany|Czech Republic;http://www.wikidata.org/entity/Q183|http://www.wikidata.org/entity/Q213;Germany;http://www.wikidata.org/entity/Q183;Berlin;http://www.wikidata.org/entity/Q64;52.5053;13.3482;;;http://botschaft-panama.de;;;;http://commons.wikimedia.org/wiki/Special:FilePath/Berlin%20-%20Botschaft%20von%20Panama%2020191028-01.jpg;Pymouss>Pymouss</a>;CC BY-SA 4.0;https://creativecommons.org/licenses/by-sa/4.0;embassy;http://www.wikidata.org/entity/Q3917681;;http://www.wikidata.org/entity/Q72627170
Panama;http://www.wikidata.org/entity/Q804;Greece|Romania|Cyprus|Bulgaria;http://www.wikidata.org/entity/Q41|http://www.wikidata.org/entity/Q218|http://www.wikidata.org/entity/Q229|http://www.wikidata.org/entity/Q219;Greece;http://www.wikidata.org/entity/Q41;Piraeus;http://www.wikidata.org/entity/Q58976;37.9397;23.641;;;https://www.panamaconsulate.gr;;;;;;;;embassy;http://www.wikidata.org/entity/Q3917681;;http://www.wikidata.org/entity/Q106937553
Panama;http://www.wikidata.org/entity/Q804;Guatemala;http://www.wikidata.org/entity/Q774;Guatemala;http://www.wikidata.org/entity/Q774;Guatemala City;http://www.wikidata.org/entity/Q1555;14.57692;-90.52131;;;;;;;;;;;embassy;http://www.wikidata.org/entity/Q3917681;;http://www.wikidata.org/entity/Q111133860
Panama;http://www.wikidata.org/entity/Q804;Haiti;http://www.wikidata.org/entity/Q790;Haiti;http://www.wikidata.org/entity/Q790;Pétion-Ville;http://www.wikidata.org/entity/Q1001440;18.52052;-72.29285;;;;;;;;;;;embassy;http://www.wikidata.org/entity/Q3917681;;http://www.wikidata.org/entity/Q111133873
Panama;http://www.wikidata.org/entity/Q804;Honduras;http://www.wikidata.org/entity/Q783;Honduras;http://www.wikidata.org/entity/Q783;Tegucigalpa;http://www.wikidata.org/entity/Q3238;14.09267;-87.17808;;;;;;;;;;;embassy;http://www.wikidata.org/entity/Q3917681;;http://www.wikidata.org/entity/Q111133897
Panama;http://www.wikidata.org/entity/Q804;India;http://www.wikidata.org/entity/Q668;India;http://www.wikidata.org/entity/Q668;New Delhi;http://www.wikidata.org/entity/Q987;28.5594;77.158;;;;Embpanamaind;;;;;;;embassy;http://www.wikidata.org/entity/Q3917681;;http://www.wikidata.org/entity/Q111133912
Panama;http://www.wikidata.org/entity/Q804;Indonesia;http://www.wikidata.org/entity/Q252;Indonesia;http://www.wikidata.org/entity/Q252;Jakarta;http://www.wikidata.org/entity/Q3630;-6.2153;106.8204;;;;;;;;;;;embassy;http://www.wikidata.org/entity/Q3917681;;http://www.wikidata.org/entity/Q107625798
Panama;http://www.wikidata.org/entity/Q804;Israel;http://www.wikidata.org/entity/Q801;Israel;http://www.wikidata.org/entity/Q801;Tel Aviv;http://www.wikidata.org/entity/Q33935;32.06915;34.78266;;;;;;;;;;;embassy;http://www.wikidata.org/entity/Q3917681;;http://www.wikidata.org/entity/Q111133923
Panama;http://www.wikidata.org/entity/Q804;Vatican City;http://www.wikidata.org/entity/Q237;Italy;http://www.wikidata.org/entity/Q38;Rome;http://www.wikidata.org/entity/Q220;41.8963;12.477;;;;;;;;;;;embassy;http://www.wikidata.org/entity/Q3917681;;http://www.wikidata.org/entity/Q56326899
Panama;http://www.wikidata.org/entity/Q804;Italy|Albania|Malta|Montenegro|San Marino;http://www.wikidata.org/entity/Q38|http://www.wikidata.org/entity/Q222|http://www.wikidata.org/entity/Q233|http://www.wikidata.org/entity/Q236|http://www.wikidata.org/entity/Q238;Italy;http://www.wikidata.org/entity/Q38;Rome;http://www.wikidata.org/entity/Q220;41.8963;12.477;;;;;;;;;;;embassy;http://www.wikidata.org/entity/Q3917681;;http://www.wikidata.org/entity/Q103869127
Panama;http://www.wikidata.org/entity/Q804;Jamaica;http://www.wikidata.org/entity/Q766;Jamaica;http://www.wikidata.org/entity/Q766;Kingston;http://www.wikidata.org/entity/Q34692;18.00741;-76.78633;;;;;;;;;;;embassy;http://www.wikidata.org/entity/Q3917681;;http://www.wikidata.org/entity/Q111133937
Panama;http://www.wikidata.org/entity/Q804;;;Japan;http://www.wikidata.org/entity/Q17;Kōbe;http://www.wikidata.org/entity/Q48320;34.689527777;135.193277777;;;http://www.embassyofpanamainjapan.org/;103169571946574;;;http://commons.wikimedia.org/wiki/Special:FilePath/Yamamoto%20Building%20Kobe%20City.jpg;KishujiRapid>KishujiRapid</a>;CC BY-SA 4.0;https://creativecommons.org/licenses/by-sa/4.0;consulate general;http://www.wikidata.org/entity/Q372690;;http://www.wikidata.org/entity/Q62026142
Panama;http://www.wikidata.org/entity/Q804;Japan;http://www.wikidata.org/entity/Q17;Japan;http://www.wikidata.org/entity/Q17;Minato-ku;http://www.wikidata.org/entity/Q190088;;;;;;;;;http://commons.wikimedia.org/wiki/Special:FilePath/%E3%83%91%E3%83%8A%E3%83%9E%E5%A4%A7%E4%BD%BF%E9%A4%A8%E3%81%8C%E5%85%A5%E5%B1%85%E3%81%99%E3%82%8B%E5%BB%BA%E7%89%A9.jpg;Senkaku Islands>Senkaku Islands</a>;CC BY-SA 4.0;https://creativecommons.org/licenses/by-sa/4.0;embassy;http://www.wikidata.org/entity/Q3917681;;http://www.wikidata.org/entity/Q62025616
Panama;http://www.wikidata.org/entity/Q804;;;Japan;http://www.wikidata.org/entity/Q17;Tokyo;http://www.wikidata.org/entity/Q1490;;;;;;;;;;;;;consulate general;http://www.wikidata.org/entity/Q372690;;http://www.wikidata.org/entity/Q105363523
Panama;http://www.wikidata.org/entity/Q804;Jordan;http://www.wikidata.org/entity/Q810;Jordan;http://www.wikidata.org/entity/Q810;Amman;http://www.wikidata.org/entity/Q3805;31.94678;35.89514;;;;;;;;;;;embassy;http://www.wikidata.org/entity/Q3917681;;http://www.wikidata.org/entity/Q111133961
Panama;http://www.wikidata.org/entity/Q804;Mexico;http://www.wikidata.org/entity/Q96;Mexico;http://www.wikidata.org/entity/Q96;Mexico City;http://www.wikidata.org/entity/Q1489;19.43309;-99.2043;;;;embpanamamexico;;;;;;;embassy;http://www.wikidata.org/entity/Q3917681;;http://www.wikidata.org/entity/Q111134198
Panama;http://www.wikidata.org/entity/Q804;Morocco;http://www.wikidata.org/entity/Q1028;Morocco;http://www.wikidata.org/entity/Q1028;Rabat;http://www.wikidata.org/entity/Q3551;33.9549;-6.8779;;;;;;;;;;;embassy;http://www.wikidata.org/entity/Q3917681;;http://www.wikidata.org/entity/Q111133984
Panama;http://www.wikidata.org/entity/Q804;Netherlands;http://www.wikidata.org/entity/Q55;Netherlands;http://www.wikidata.org/entity/Q55;The Hague;http://www.wikidata.org/entity/Q36600;52.0833;4.3066;;;;;;;http://commons.wikimedia.org/wiki/Special:FilePath/Den%20Haag%20-%20Amaliastraat%203.JPG;Rudolphous>Rudolphous</a> (<a href=//commons.wikimedia.org/wiki/User_talk:Rudolphous title=User talk:Rudolphous><span class=signature-talk>talk</span></a>);CC BY-SA 3.0 nl;https://creativecommons.org/licenses/by-sa/3.0/nl/deed.en;embassy;http://www.wikidata.org/entity/Q3917681;;http://www.wikidata.org/entity/Q100533174
Panama;http://www.wikidata.org/entity/Q804;Nicaragua;http://www.wikidata.org/entity/Q811;Nicaragua;http://www.wikidata.org/entity/Q811;Managua;http://www.wikidata.org/entity/Q3274;12.0927;-86.2394;;;;;;;;;;;embassy;http://www.wikidata.org/entity/Q3917681;;http://www.wikidata.org/entity/Q111134223
Panama;http://www.wikidata.org/entity/Q804;Paraguay;http://www.wikidata.org/entity/Q733;Paraguay;http://www.wikidata.org/entity/Q733;Asunción;http://www.wikidata.org/entity/Q2933;-25.28458;-57.58512;;;https://mire.gob.pa/ministerio/embajada-y-consulado/asuncion-embajada-y-seccion-consular-de-panama/;;;;;;;;embassy;http://www.wikidata.org/entity/Q3917681;;http://www.wikidata.org/entity/Q110571154
Panama;http://www.wikidata.org/entity/Q804;People's Republic of China;http://www.wikidata.org/entity/Q148;People's Republic of China;http://www.wikidata.org/entity/Q148;Beijing;http://www.wikidata.org/entity/Q956;39.94976;116.45912;;;;;;;;;;;embassy;http://www.wikidata.org/entity/Q3917681;;http://www.wikidata.org/entity/Q111132759
Panama;http://www.wikidata.org/entity/Q804;;;People's Republic of China;http://www.wikidata.org/entity/Q148;Tianhe District;http://www.wikidata.org/entity/Q917049;23.120347;113.318075;;;https://mire.gob.pa/ministerio/embajada-y-consulado/guangzhou-consulado-general-de-marina-mercante-de-panama/;;;;;;;;consulate general;http://www.wikidata.org/entity/Q372690;2019-05-22T00:00:00Z;http://www.wikidata.org/entity/Q108570920
Panama;http://www.wikidata.org/entity/Q804;Philippines;http://www.wikidata.org/entity/Q928;Philippines;http://www.wikidata.org/entity/Q928;Makati;http://www.wikidata.org/entity/Q1508;14.55583;121.02203;;;;;;;;;;;embassy;http://www.wikidata.org/entity/Q3917681;;http://www.wikidata.org/entity/Q111133827
Panama;http://www.wikidata.org/entity/Q804;Poland|Lithuania|Estonia|Latvia|Moldova;http://www.wikidata.org/entity/Q36|http://www.wikidata.org/entity/Q37|http://www.wikidata.org/entity/Q191|http://www.wikidata.org/entity/Q211|http://www.wikidata.org/entity/Q217;Poland;http://www.wikidata.org/entity/Q36;Warsaw;http://www.wikidata.org/entity/Q270;52.169208333;21.088536111;+48-22-642-21-43;;https://www.mire.gob.pa/index.php/en/embajada-de-polonia;;;;http://commons.wikimedia.org/wiki/Special:FilePath/Ambasada%20REPUBLIKI%20PANAMY%2002.jpg;Andrzej Błaszczak>Andrzej Błaszczak</a>;CC BY-SA 4.0;https://creativecommons.org/licenses/by-sa/4.0;embassy;http://www.wikidata.org/entity/Q3917681;1933-01-01T00:00:00Z;http://www.wikidata.org/entity/Q9149563
Panama;http://www.wikidata.org/entity/Q804;Portugal;http://www.wikidata.org/entity/Q45;Portugal;http://www.wikidata.org/entity/Q45;Lisbon;http://www.wikidata.org/entity/Q597;38.7031;-9.2115;;;http://www.embaixadadopanama.pt/;;;;;;;;embassy;http://www.wikidata.org/entity/Q3917681;;http://www.wikidata.org/entity/Q105459827
Panama;http://www.wikidata.org/entity/Q804;Qatar;http://www.wikidata.org/entity/Q846;Qatar;http://www.wikidata.org/entity/Q846;Doha;http://www.wikidata.org/entity/Q3861;25.36;51.5129;;;;;;;;;;;embassy;http://www.wikidata.org/entity/Q3917681;;http://www.wikidata.org/entity/Q111132687
Panama;http://www.wikidata.org/entity/Q804;Russia;http://www.wikidata.org/entity/Q159;Russia;http://www.wikidata.org/entity/Q159;Moscow;http://www.wikidata.org/entity/Q649;55.71394;37.59323;;;http://www.embapanamarusia.ru;;;;http://commons.wikimedia.org/wiki/Special:FilePath/%D0%9F%D0%BE%D1%81%D0%BE%D0%BB%D1%8C%D1%81%D1%82%D0%B2%D0%BE%20%D0%9F%D0%B0%D0%BD%D0%B0%D0%BC%D1%8B%20%D0%B2%20%D0%A0%D0%BE%D1%81%D1%81%D0%B8%D0%B8.jpg;Vano111ru>Vano111ru</a>;CC BY-SA 4.0;https://creativecommons.org/licenses/by-sa/4.0;embassy;http://www.wikidata.org/entity/Q3917681;;http://www.wikidata.org/entity/Q110190411
Panama;http://www.wikidata.org/entity/Q804;Singapore;http://www.wikidata.org/entity/Q334;Singapore;http://www.wikidata.org/entity/Q334;Singapore;http://www.wikidata.org/entity/Q334;1.28127;103.85094;;;;;;;http://commons.wikimedia.org/wiki/Special:FilePath/Singapore%20-%20Raffles%20Quay%2016%20-%20Hong%20Leong%20Building%20IMG%209669.jpg;Bjoertvedt>Bjoertvedt</a>;CC BY-SA 4.0;https://creativecommons.org/licenses/by-sa/4.0;embassy;http://www.wikidata.org/entity/Q3917681;;http://www.wikidata.org/entity/Q111134757
Panama;http://www.wikidata.org/entity/Q804;South Africa;http://www.wikidata.org/entity/Q258;South Africa;http://www.wikidata.org/entity/Q258;Pretoria;http://www.wikidata.org/entity/Q3926;-25.77117;28.2251;;;;Embajada-de-Panamá-en-Sudáfrica-1603025586660331;;;;;;;embassy;http://www.wikidata.org/entity/Q3917681;;http://www.wikidata.org/entity/Q106692548
Panama;http://www.wikidata.org/entity/Q804;South Korea;http://www.wikidata.org/entity/Q884;South Korea;http://www.wikidata.org/entity/Q884;Seoul;http://www.wikidata.org/entity/Q8684;37.5734;126.9686;;;http://panama.embaseoul.kr/;;;;;;;;embassy;http://www.wikidata.org/entity/Q3917681;;http://www.wikidata.org/entity/Q104213921
Panama;http://www.wikidata.org/entity/Q804;;;Spain;http://www.wikidata.org/entity/Q29;Las Palmas de Gran Canaria;http://www.wikidata.org/entity/Q11974;;;;;;;;;;;;;consulate general;http://www.wikidata.org/entity/Q372690;;http://www.wikidata.org/entity/Q79605024
Panama;http://www.wikidata.org/entity/Q804;Spain;http://www.wikidata.org/entity/Q29;Spain;http://www.wikidata.org/entity/Q29;Madrid;http://www.wikidata.org/entity/Q2807;40.4308;-3.6939;;;http://espana.panamaemb.gob.pa/;;;;;;;;embassy;http://www.wikidata.org/entity/Q3917681;;http://www.wikidata.org/entity/Q5830354
Panama;http://www.wikidata.org/entity/Q804;Norway|Finland|Sweden|Denmark;http://www.wikidata.org/entity/Q20|http://www.wikidata.org/entity/Q33|http://www.wikidata.org/entity/Q34|http://www.wikidata.org/entity/Q35;Sweden;http://www.wikidata.org/entity/Q34;Stockholm;http://www.wikidata.org/entity/Q1754;59.34147222;18.07997222;;;;;;;http://commons.wikimedia.org/wiki/Special:FilePath/%C3%84lgen%2017%2C%20Stockholm.jpg;I99pema>I99pema</a>;CC BY-SA 3.0;https://creativecommons.org/licenses/by-sa/3.0;embassy;http://www.wikidata.org/entity/Q3917681;;http://www.wikidata.org/entity/Q10615774
Panama;http://www.wikidata.org/entity/Q804;Switzerland;http://www.wikidata.org/entity/Q39;Switzerland;http://www.wikidata.org/entity/Q39;Geneva;http://www.wikidata.org/entity/Q71;46.2157;6.1475;;;;;;;;;;;embassy;http://www.wikidata.org/entity/Q3917681;;http://www.wikidata.org/entity/Q101024329
Panama;http://www.wikidata.org/entity/Q804;Thailand;http://www.wikidata.org/entity/Q869;Thailand;http://www.wikidata.org/entity/Q869;Bangkok;http://www.wikidata.org/entity/Q1861;13.72317;100.54928;;mailto:consular@panathai.com;http://panathai.com/;;;;;;;;embassy;http://www.wikidata.org/entity/Q3917681;;http://www.wikidata.org/entity/Q110746023
Panama;http://www.wikidata.org/entity/Q804;Trinidad and Tobago;http://www.wikidata.org/entity/Q754;Trinidad and Tobago;http://www.wikidata.org/entity/Q754;Port of Spain;http://www.wikidata.org/entity/Q39178;10.6652;-61.52147;;;;;;;;;;;embassy;http://www.wikidata.org/entity/Q3917681;;http://www.wikidata.org/entity/Q111134859
Panama;http://www.wikidata.org/entity/Q804;Turkey;http://www.wikidata.org/entity/Q43;Turkey;http://www.wikidata.org/entity/Q43;Ankara;http://www.wikidata.org/entity/Q3640;39.88815;32.84963;;;;EmbPanamaTur;;;;;;;embassy;http://www.wikidata.org/entity/Q3917681;;http://www.wikidata.org/entity/Q111029948
Panama;http://www.wikidata.org/entity/Q804;United Arab Emirates;http://www.wikidata.org/entity/Q878;United Arab Emirates;http://www.wikidata.org/entity/Q878;Abu Dhabi;http://www.wikidata.org/entity/Q1519;24.4056;54.4689;;;;;;;;;;;embassy;http://www.wikidata.org/entity/Q3917681;;http://www.wikidata.org/entity/Q111133679
Panama;http://www.wikidata.org/entity/Q804;Republic of Ireland|United Kingdom|Iceland;http://www.wikidata.org/entity/Q27|http://www.wikidata.org/entity/Q145|http://www.wikidata.org/entity/Q189;United Kingdom;http://www.wikidata.org/entity/Q145;Mayfair;http://www.wikidata.org/entity/Q124184;51.5058;-0.148111;;;;;;;http://commons.wikimedia.org/wiki/Special:FilePath/Embassy%20of%20Panama%20in%20London%201.jpg;Sdrawkcab>Sdrawkcab</a>;CC BY-SA 3.0;https://creativecommons.org/licenses/by-sa/3.0;embassy;http://www.wikidata.org/entity/Q3917681;;http://www.wikidata.org/entity/Q16891008
Panama;http://www.wikidata.org/entity/Q804;United States of America;http://www.wikidata.org/entity/Q30;United States of America;http://www.wikidata.org/entity/Q30;Washington, D.C.;http://www.wikidata.org/entity/Q61;38.92258;-77.05759;;;https://www.embassyofpanama.org;;;;http://commons.wikimedia.org/wiki/Special:FilePath/Panamanian-embassy-dc046.JPG;Slowking4>Slowking4</a>;CC BY-SA 3.0;https://creativecommons.org/licenses/by-sa/3.0;embassy;http://www.wikidata.org/entity/Q3917681;;http://www.wikidata.org/entity/Q111132608
Panama;http://www.wikidata.org/entity/Q804;Uruguay;http://www.wikidata.org/entity/Q77;Uruguay;http://www.wikidata.org/entity/Q77;Montevideo;http://www.wikidata.org/entity/Q1335;-34.90682;-56.1398;;;https://mire.gob.pa/ministerio/embajada-y-consulado/montevideo/;;;;;;;;embassy;http://www.wikidata.org/entity/Q3917681;;http://www.wikidata.org/entity/Q110493393
Panama;http://www.wikidata.org/entity/Q804;Venezuela;http://www.wikidata.org/entity/Q717;Venezuela;http://www.wikidata.org/entity/Q717;Caracas;http://www.wikidata.org/entity/Q1533;10.48249;-66.84882;;;;;;;;;;;embassy;http://www.wikidata.org/entity/Q3917681;;http://www.wikidata.org/entity/Q111134879
Panama;http://www.wikidata.org/entity/Q804;Vietnam;http://www.wikidata.org/entity/Q881;Vietnam;http://www.wikidata.org/entity/Q881;Hanoi;http://www.wikidata.org/entity/Q1858;21.0242;105.8486;;;;;;;;;;;embassy;http://www.wikidata.org/entity/Q3917681;;http://www.wikidata.org/entity/Q111134894
Papua New Guinea;http://www.wikidata.org/entity/Q691;Australia;http://www.wikidata.org/entity/Q408;Australia;http://www.wikidata.org/entity/Q408;Canberra;http://www.wikidata.org/entity/Q3114;-35.30342;149.12395;;;http://pngcanberra.org/;;;;http://commons.wikimedia.org/wiki/Special:FilePath/High%20Commission%20of%20Papua%20New%20Guinea%20to%20Australia%20June%202016.jpg;Nick-D>Nick-D</a>;CC BY-SA 4.0;https://creativecommons.org/licenses/by-sa/4.0;high commission;http://www.wikidata.org/entity/Q18414273;;http://www.wikidata.org/entity/Q106488902
Papua New Guinea;http://www.wikidata.org/entity/Q691;Spain|Belgium|Luxembourg|Poland|Italy|Denmark|Portugal|Greece|Vatican City|France;http://www.wikidata.org/entity/Q29|http://www.wikidata.org/entity/Q31|http://www.wikidata.org/entity/Q32|http://www.wikidata.org/entity/Q36|http://www.wikidata.org/entity/Q38|http://www.wikidata.org/entity/Q35|http://www.wikidata.org/entity/Q45|http://www.wikidata.org/entity/Q41|http://www.wikidata.org/entity/Q237|http://www.wikidata.org/entity/Q142;Belgium;http://www.wikidata.org/entity/Q31;Woluwe-Saint-Pierre - Sint-Pieters-Woluwe;http://www.wikidata.org/entity/Q242393;50.825361;4.446778;;;;;;;;;;;embassy;http://www.wikidata.org/entity/Q3917681;;http://www.wikidata.org/entity/Q60860859
Papua New Guinea;http://www.wikidata.org/entity/Q691;India;http://www.wikidata.org/entity/Q668;India;http://www.wikidata.org/entity/Q668;New Delhi;http://www.wikidata.org/entity/Q987;28.5601;77.1549;;;;;;;;;;;high commission;http://www.wikidata.org/entity/Q18414273;;http://www.wikidata.org/entity/Q112661334
Papua New Guinea;http://www.wikidata.org/entity/Q691;Indonesia;http://www.wikidata.org/entity/Q252;Indonesia;http://www.wikidata.org/entity/Q252;Jakarta;http://www.wikidata.org/entity/Q3630;-6.22802;106.79973;;;;;;;;;;;embassy;http://www.wikidata.org/entity/Q3917681;;http://www.wikidata.org/entity/Q107625925
Papua New Guinea;http://www.wikidata.org/entity/Q691;Japan;http://www.wikidata.org/entity/Q17;Japan;http://www.wikidata.org/entity/Q17;Meguro-ku;http://www.wikidata.org/entity/Q233903;35.626596;139.703269;;;http://png.or.jp/;;;;http://commons.wikimedia.org/wiki/Special:FilePath/%E3%83%91%E3%83%97%E3%82%A2%E3%83%8B%E3%83%A5%E3%83%BC%E3%82%AE%E3%83%8B%E3%82%A2%E5%85%A8%E6%99%AF.jpg;Senkaku Islands>Senkaku Islands</a>;CC BY-SA 4.0;https://creativecommons.org/licenses/by-sa/4.0;embassy;http://www.wikidata.org/entity/Q3917681;;http://www.wikidata.org/entity/Q61786715
Papua New Guinea;http://www.wikidata.org/entity/Q691;New Zealand;http://www.wikidata.org/entity/Q664;New Zealand;http://www.wikidata.org/entity/Q664;Wellington;http://www.wikidata.org/entity/Q23661;-41.29437;174.77225;;;https://png.org.nz;;;;http://commons.wikimedia.org/wiki/Special:FilePath/Papua%20New%20Guinea%20High%20Commission-Wellington.jpg;Aquintero82>Aquintero82</a>;CC BY-SA 4.0;https://creativecommons.org/licenses/by-sa/4.0;high commission;http://www.wikidata.org/entity/Q18414273;;http://www.wikidata.org/entity/Q111889151
Papua New Guinea;http://www.wikidata.org/entity/Q691;Israel|Zimbabwe|Egypt|Cyprus|United Kingdom|South Africa|Serbia;http://www.wikidata.org/entity/Q801|http://www.wikidata.org/entity/Q954|http://www.wikidata.org/entity/Q79|http://www.wikidata.org/entity/Q229|http://www.wikidata.org/entity/Q145|http://www.wikidata.org/entity/Q258|http://www.wikidata.org/entity/Q403;United Kingdom;http://www.wikidata.org/entity/Q145;London;http://www.wikidata.org/entity/Q84;51.5074;-0.13325;;;http://pnghighcomm.org.uk/;;;;http://commons.wikimedia.org/wiki/Special:FilePath/High%20Commission%20of%20Papua%20New%20Guinea%201.jpg;Sdrawkcab>Sdrawkcab</a>;CC BY-SA 3.0;https://creativecommons.org/licenses/by-sa/3.0;high commission;http://www.wikidata.org/entity/Q18414273;;http://www.wikidata.org/entity/Q16843037
Papua New Guinea;http://www.wikidata.org/entity/Q691;Canada|United States of America|Mexico;http://www.wikidata.org/entity/Q16|http://www.wikidata.org/entity/Q30|http://www.wikidata.org/entity/Q96;United States of America;http://www.wikidata.org/entity/Q30;Washington, D.C.;http://www.wikidata.org/entity/Q61;38.90885556;-77.04122778;;;http://www.pngembassy.org;;;;http://commons.wikimedia.org/wiki/Special:FilePath/Carnegie%20Endowment%20for%20International%20Peace%20-%20Dupont%20Circle.JPG;AgnosticPreachersKid>AgnosticPreachersKid</a>;CC BY-SA 3.0;https://creativecommons.org/licenses/by-sa/3.0;embassy;http://www.wikidata.org/entity/Q3917681;;http://www.wikidata.org/entity/Q29025001
Paraguay;http://www.wikidata.org/entity/Q733;Argentina;http://www.wikidata.org/entity/Q414;Argentina;http://www.wikidata.org/entity/Q414;Buenos Aires;http://www.wikidata.org/entity/Q1486;-34.5852;-58.39909;;;https://www.mre.gov.py/embapar-argentina;;;;http://commons.wikimedia.org/wiki/Special:FilePath/Paraguayan%20Embassy%2C%20Buenos%20Aires.jpg;Gastón Cuello>Gastón Cuello</a>;CC BY-SA 4.0;https://creativecommons.org/licenses/by-sa/4.0;embassy;http://www.wikidata.org/entity/Q3917681;;http://www.wikidata.org/entity/Q110300739
Paraguay;http://www.wikidata.org/entity/Q733;Australia|New Zealand|Tuvalu|Samoa|Solomon Islands|Papua New Guinea|Nauru|Federated States of Micronesia;http://www.wikidata.org/entity/Q408|http://www.wikidata.org/entity/Q664|http://www.wikidata.org/entity/Q672|http://www.wikidata.org/entity/Q683|http://www.wikidata.org/entity/Q685|http://www.wikidata.org/entity/Q691|http://www.wikidata.org/entity/Q697|http://www.wikidata.org/entity/Q702;Australia;http://www.wikidata.org/entity/Q408;Canberra;http://www.wikidata.org/entity/Q3114;-35.31158;149.10259;;;https://www.mre.gov.py/embapar-australia/;;;;;;;;embassy;http://www.wikidata.org/entity/Q3917681;;http://www.wikidata.org/entity/Q106489166
Paraguay;http://www.wikidata.org/entity/Q733;Hungary|Austria|Czech Republic|Slovakia|Slovenia|Bulgaria|Croatia;http://www.wikidata.org/entity/Q28|http://www.wikidata.org/entity/Q40|http://www.wikidata.org/entity/Q213|http://www.wikidata.org/entity/Q214|http://www.wikidata.org/entity/Q215|http://www.wikidata.org/entity/Q219|http://www.wikidata.org/entity/Q224;Austria;http://www.wikidata.org/entity/Q40;Vienna;http://www.wikidata.org/entity/Q1741;48.1955;16.3762;;;;;;;http://commons.wikimedia.org/wiki/Special:FilePath/Wien-Prinz-Eugen-Str-18.jpg;SchiDD>SchiDD</a>;CC BY-SA 4.0;https://creativecommons.org/licenses/by-sa/4.0;embassy;http://www.wikidata.org/entity/Q3917681;;http://www.wikidata.org/entity/Q104630574
Paraguay;http://www.wikidata.org/entity/Q733;Belgium|Luxembourg|Netherlands;http://www.wikidata.org/entity/Q31|http://www.wikidata.org/entity/Q32|http://www.wikidata.org/entity/Q55;Belgium;http://www.wikidata.org/entity/Q31;Brussels;http://www.wikidata.org/entity/Q239;50.8172;4.3711;;;;;;;;;;;embassy;http://www.wikidata.org/entity/Q3917681;;http://www.wikidata.org/entity/Q69901202
Paraguay;http://www.wikidata.org/entity/Q733;Bolivia;http://www.wikidata.org/entity/Q750;Bolivia;http://www.wikidata.org/entity/Q750;La Paz;http://www.wikidata.org/entity/Q1491;-16.51027;-68.12529;;;;;;;;;;;embassy;http://www.wikidata.org/entity/Q3917681;;http://www.wikidata.org/entity/Q110509237
Paraguay;http://www.wikidata.org/entity/Q733;Brazil;http://www.wikidata.org/entity/Q155;Brazil;http://www.wikidata.org/entity/Q155;Brasília;http://www.wikidata.org/entity/Q2844;-15.83223;-47.89792;;;;;;;;;;;embassy;http://www.wikidata.org/entity/Q3917681;;http://www.wikidata.org/entity/Q105716030
Paraguay;http://www.wikidata.org/entity/Q733;Canada;http://www.wikidata.org/entity/Q16;Canada;http://www.wikidata.org/entity/Q16;Ottawa;http://www.wikidata.org/entity/Q1930;45.421388888;-75.697222222;;;https://www.mre.gov.py/Sitios/Home/Index/embapar-canada/;;;;;;;;embassy;http://www.wikidata.org/entity/Q3917681;;http://www.wikidata.org/entity/Q106776699
Paraguay;http://www.wikidata.org/entity/Q733;Chile;http://www.wikidata.org/entity/Q298;Chile;http://www.wikidata.org/entity/Q298;Las Condes;http://www.wikidata.org/entity/Q14484;-33.41231;-70.58063;;;http://embajadadelparaguay.cl/;EmbajadaDelParaguayEnChile;;;;;;;embassy;http://www.wikidata.org/entity/Q3917681;;http://www.wikidata.org/entity/Q110483829
Paraguay;http://www.wikidata.org/entity/Q733;Colombia|El Salvador;http://www.wikidata.org/entity/Q739|http://www.wikidata.org/entity/Q792;Colombia;http://www.wikidata.org/entity/Q739;Bogotá;http://www.wikidata.org/entity/Q2841;4.6513;-74.0544;;;;;;;;;;;embassy;http://www.wikidata.org/entity/Q3917681;;http://www.wikidata.org/entity/Q110509328
Paraguay;http://www.wikidata.org/entity/Q733;Costa Rica;http://www.wikidata.org/entity/Q800;Costa Rica;http://www.wikidata.org/entity/Q800;San José;http://www.wikidata.org/entity/Q3070;9.92294;-84.04381;;;;;;;;;;;embassy;http://www.wikidata.org/entity/Q3917681;;http://www.wikidata.org/entity/Q110508982
Paraguay;http://www.wikidata.org/entity/Q733;Cuba|Haiti;http://www.wikidata.org/entity/Q241|http://www.wikidata.org/entity/Q790;Cuba;http://www.wikidata.org/entity/Q241;Havana;http://www.wikidata.org/entity/Q1563;23.11797;-82.42588;;;;;;;;;;;embassy;http://www.wikidata.org/entity/Q3917681;;http://www.wikidata.org/entity/Q110508588
Paraguay;http://www.wikidata.org/entity/Q733;Dominican Republic;http://www.wikidata.org/entity/Q786;Dominican Republic;http://www.wikidata.org/entity/Q786;Santo Domingo;http://www.wikidata.org/entity/Q34820;18.46641;-69.9236;;;;;;;;;;;embassy;http://www.wikidata.org/entity/Q3917681;;http://www.wikidata.org/entity/Q110508872
Paraguay;http://www.wikidata.org/entity/Q733;Ecuador;http://www.wikidata.org/entity/Q736;Ecuador;http://www.wikidata.org/entity/Q736;Quito;http://www.wikidata.org/entity/Q2900;-0.20475;-78.48439;;;https://www.mre.gov.py/embapar-ecuador/;;;;;;;;embassy;http://www.wikidata.org/entity/Q3917681;;http://www.wikidata.org/entity/Q110509373
Paraguay;http://www.wikidata.org/entity/Q733;Egypt|Kenya|Pakistan|Djibouti|Eritrea|Nigeria|Uganda|Sudan|State of Palestine;http://www.wikidata.org/entity/Q79|http://www.wikidata.org/entity/Q114|http://www.wikidata.org/entity/Q843|http://www.wikidata.org/entity/Q977|http://www.wikidata.org/entity/Q986|http://www.wikidata.org/entity/Q1033|http://www.wikidata.org/entity/Q1036|http://www.wikidata.org/entity/Q1049|http://www.wikidata.org/entity/Q219060;Egypt;http://www.wikidata.org/entity/Q79;Cairo;http://www.wikidata.org/entity/Q85;29.95703;31.25173;;;https://embajadas.paraguay.gov.py/egipto;;;;;;;;embassy;http://www.wikidata.org/entity/Q3917681;;http://www.wikidata.org/entity/Q110507434
Paraguay;http://www.wikidata.org/entity/Q733;France|Cyprus|Monaco;http://www.wikidata.org/entity/Q142|http://www.wikidata.org/entity/Q229|http://www.wikidata.org/entity/Q235;France;http://www.wikidata.org/entity/Q142;Paris;http://www.wikidata.org/entity/Q90;48.8599;2.31051;;;;;;;http://commons.wikimedia.org/wiki/Special:FilePath/1RueStDominique-P7-017.jpg;Bruno befreetv>Bruno befreetv</a>;CC BY-SA 3.0;https://creativecommons.org/licenses/by-sa/3.0;embassy;http://www.wikidata.org/entity/Q3917681;;http://www.wikidata.org/entity/Q20669722
Paraguay;http://www.wikidata.org/entity/Q733;Poland|Lithuania|Germany|Estonia|Latvia;http://www.wikidata.org/entity/Q36|http://www.wikidata.org/entity/Q37|http://www.wikidata.org/entity/Q183|http://www.wikidata.org/entity/Q191|http://www.wikidata.org/entity/Q211;Germany;http://www.wikidata.org/entity/Q183;Berlin;http://www.wikidata.org/entity/Q64;52.5086;13.3268;;;http://embapar.de;;;;http://commons.wikimedia.org/wiki/Special:FilePath/Embassy%20Paraguay%20Berlin-Charlottenburg.jpg;MB-one>MB-one</a>;CC BY-SA 4.0;https://creativecommons.org/licenses/by-sa/4.0;embassy;http://www.wikidata.org/entity/Q3917681;1925-01-01T00:00:00Z;http://www.wikidata.org/entity/Q11685576
Paraguay;http://www.wikidata.org/entity/Q733;India|Maldives|Malaysia|Nepal|Sri Lanka|Thailand|Bangladesh;http://www.wikidata.org/entity/Q668|http://www.wikidata.org/entity/Q826|http://www.wikidata.org/entity/Q833|http://www.wikidata.org/entity/Q837|http://www.wikidata.org/entity/Q854|http://www.wikidata.org/entity/Q869|http://www.wikidata.org/entity/Q902;India;http://www.wikidata.org/entity/Q668;New Delhi;http://www.wikidata.org/entity/Q987;28.56495;77.16107;;;https://paraguayembassy.in/;;;;;;;;embassy;http://www.wikidata.org/entity/Q3917681;;http://www.wikidata.org/entity/Q110524044
Paraguay;http://www.wikidata.org/entity/Q733;Israel;http://www.wikidata.org/entity/Q801;Israel;http://www.wikidata.org/entity/Q801;Herzliya;http://www.wikidata.org/entity/Q152491;32.16065;34.80924;;;;;;;;;;;embassy;http://www.wikidata.org/entity/Q3917681;;http://www.wikidata.org/entity/Q110526988
Paraguay;http://www.wikidata.org/entity/Q733;Vatican City|Sovereign Military Order of Malta;http://www.wikidata.org/entity/Q237|http://www.wikidata.org/entity/Q190353;Italy;http://www.wikidata.org/entity/Q38;Rome;http://www.wikidata.org/entity/Q220;41.9097;12.4452;;;;;;;;;;;embassy;http://www.wikidata.org/entity/Q3917681;;http://www.wikidata.org/entity/Q60855268
Paraguay;http://www.wikidata.org/entity/Q733;Italy|Greece|North Macedonia|Albania|Bosnia and Herzegovina|Malta|Montenegro|Serbia;http://www.wikidata.org/entity/Q38|http://www.wikidata.org/entity/Q41|http://www.wikidata.org/entity/Q221|http://www.wikidata.org/entity/Q222|http://www.wikidata.org/entity/Q225|http://www.wikidata.org/entity/Q233|http://www.wikidata.org/entity/Q236|http://www.wikidata.org/entity/Q403;Italy;http://www.wikidata.org/entity/Q38;Rome;http://www.wikidata.org/entity/Q220;41.9251;12.497;;;https://www.mre.gov.py/embapar-italia/;;;;;;;;embassy;http://www.wikidata.org/entity/Q3917681;;http://www.wikidata.org/entity/Q103901669
